Provider #,Site Name,State,Type (group),Type,City,County,Rural Status,Site Subcategory,# of Beds,.Hospital Locations,Latitude,Longitude
210003,UNIVERSITY OF MD CAPITAL REGION MEDICAL CENTER,MD,All Others,Short-Term Hospital,Upper Marlboro,Prince George's County,No,Short Term,224,Point,38.90246176,-76.84435163
390058,UPMC CARLISLE,PA,All Others,Short-Term Hospital,Carlisle,Cumberland County,No,Short Term,165,Point,40.18475711,-77.22471276
390068,UPMC LITITZ,PA,All Others,Short-Term Hospital,Lititz,Lancaster County,No,Short Term,206,Point,40.13114307,-76.31086881
390039,UPMC SOMERSET,PA,All Others,Short-Term Hospital,Somerset,Somerset County,Yes,Short Term,111,Point,40.00704199,-79.07855253
330396,WOODHULL MEDICAL & MENTAL HEALTH CENTER,NY,All Others,Short-Term Hospital,Brooklyn,Kings County,No,Short Term,411,Point,40.70035241,-73.94160326
490111,WYTHE COUNTY COMMUNITY HOSPITAL,VA,All Others,Short-Term Hospital,Wytheville,Wythe County,Yes,Short Term,100,Point,36.95306539,-81.09652053
330395,ST JOHN'S EPISCOPAL HOSPITAL AT SOUTH SHORE,NY,All Others,Short-Term Hospital,Far Rockaway,Queens County,No,Short Term,257,Point,40.59865901,-73.75300381
390304,ROXBOROUGH MEMORIAL HOSPITAL,PA,All Others,Short-Term Hospital,Philadelphia,Philadelphia County,No,Short Term,137,Point,40.02878392,-75.21036199
392031,SELECT SPECIALTY HOSPITAL - JOHNSTOWN,PA,All Others,Long-Term Hospital,Johnstown,Cambria County,No,Long Term,39,Point,40.32639372,-78.92084753
362024,SELECT SPECIALTY HOSPITAL - YOUNGSTOWN,OH,All Others,Long-Term Hospital,Youngstown,Mahoning County,No,Long Term,31,Point,41.11449902,-80.6558154
312019,SELECT SPECIALTY HOSPITAL NORTHEAST,NJ,All Others,Long-Term Hospital,Rochelle Park,Bergen County,No,Long Term,62,Point,40.89870722,-74.07581907
362023,SELECT SPECIALTY HOSPITAL-BOARDMAN,OH,All Others,Long-Term Hospital,Boardman,Mahoning County,No,Long Term,45,Point,41.00513283,-80.63394182
312022,SELECT SPECIALTY HOSPITAL-WILLINGBORO,NJ,All Others,Long-Term Hospital,Willingboro,Burlington County,No,Long Term,69,Point,40.046498,-74.88068998
362026,SELECT SPECIALTY HOSPITAL- CLEVELAND FAIRHILL,OH,All Others,Long-Term Hospital,Cleveland,Cuyahoga County,No,Long Term,119,Point,41.49307245,-81.60015206
392025,PAM SPECIALTY HOSPITAL OF WILKES-BARRE,PA,All Others,Long-Term Hospital,Wilkes Barre,Luzerne County,No,Long Term,36,Point,41.25805659,-75.86822888
492009,VIBRA HOSPITAL OF RICHMOND,VA,All Others,Long-Term Hospital,Richmond,Henrico County,No,Long Term,60,Point,37.5906419,-77.49002673
491991,LYNN HOUSE OF POTOMAC VALLEY,VA,All Others,Religious Non-Medical Health Care Institution,Alexandria,Alexandria City,No,Religious Nonmedical Health Care Institutions,16,Point,38.82890582,-77.10571278
074015,ALBERT J SOLNIT CHILDREN'S CENTER - SOUTH CAMPUS,CT,All Others,Psychiatric Hospital,Middletown,Middlesex County,No,Psychiatric,50,Point,41.55641098,-72.61583403
334045,ELMIRA PSYCH CENTER,NY,All Others,Psychiatric Hospital,Elmira,Chemung County,No,Psychiatric,95,Point,42.09188574,-76.79570938
360150,SUMMA WESTERN RESERVE HOSPITAL,OH,All Others,Short-Term Hospital,Cuyahoga Falls,Summit County,No,Short Term,258,Point,41.13243784,-81.5101289
220116,TUFTS MEDICAL CENTER,MA,All Others,Short-Term Hospital,Boston,Suffolk County,No,Short Term,415,Point,42.34966046,-71.06351621
360123,UH ST JOHN MEDICAL CENTER,OH,All Others,Short-Term Hospital,Westlake,Cuyahoga County,No,Short Term,240,Point,41.43566199,-81.94399599
330394,"UNITED HEALTH SERVICES HOSPITALS, INC",NY,All Others,Short-Term Hospital,Binghamton,Broome County,No,Short Term,500,Point,42.08651916,-75.91446463
390066,WELLSPAN GOOD SAMARITAN HOSPITAL,PA,All Others,Short-Term Hospital,Lebanon,Lebanon County,No,Short Term,196,Point,40.33625922,-76.4173551
362004,DRAKE CENTER INC,OH,All Others,Long-Term Hospital,Cincinnati,Hamilton County,No,Long Term,108,Point,39.21350911,-84.47998731
222048,WHITTIER REHABILITATION HOSPITAL,MA,All Others,Long-Term Hospital,Westborough,Worcester County,No,Long Term,88,Point,42.27647119,-71.56786622
314005,ANCORA PSYCH HOSP,NJ,All Others,Psychiatric Hospital,Hammonton,Atlantic County,Yes,Psychiatric,709,Point,39.63447,-74.80602499
224021,ARBOUR-FULLER HOSPITAL,MA,All Others,Psychiatric Hospital,South Attleboro,Bristol County,No,Psychiatric,86,Point,41.92386515,-71.36057328
364059,ASSURANCE HEALTH HUDSON LLC,OH,All Others,Psychiatric Hospital,Hudson,Summit County,No,Psychiatric,23,Point,41.23635383,-81.48699191
364060,GENERATIONS BEHAVIORAL HEALTH-YOUNGSTOWN LLC,OH,All Others,Psychiatric Hospital,Youngstown,Trumbull County,No,Psychiatric,76,Point,41.13703775,-80.66316801
364065,GLENWOOD BEHAVIORAL HEALTH HOSPITAL,OH,All Others,Psychiatric Hospital,Cincinnati,Hamilton County,No,Psychiatric,80,Point,39.204846,-84.57107898
314016,GREYSTONE PARK PSYCH HOSP,NJ,All Others,Psychiatric Hospital,Greystone Park,Morris County,No,Psychiatric,468,Point,40.839276,-74.51260298
220019,UMASS MEMORIAL HEALH - HARRINGTON HOSPITAL,MA,All Others,Short-Term Hospital,Southbridge,Worcester County,No,Short Term,113,Point,42.07854651,-72.04202578
510006,"UNITED HOSPITAL CENTER, INC",WV,All Others,Short-Term Hospital,Bridgeport,Harrison County,Yes,Short Term,375,Point,39.32886744,-80.238261
210027,U P M C WESTERN MARYLAND,MD,All Others,Short-Term Hospital,Cumberland,Allegany County,No,Short Term,240,Point,39.65565593,-78.73168758
360075,UH REGIONAL HOSPITALS,OH,All Others,Short-Term Hospital,Chardon,Geauga County,No,Short Term,213,Point,41.50877201,-81.18956401
390041,UNIONTOWN HOSPITAL,PA,All Others,Short-Term Hospital,Uniontown,Fayette County,No,Short Term,190,Point,39.90231124,-79.73796012
490084,VCU HEALTH TAPPAHANNOCK HOSPITAL,VA,All Others,Short-Term Hospital,Tappahannock,Essex County,Yes,Short Term,67,Point,37.90061423,-76.87829297
310061,VIRTUA WILLINGBORO HOSPITAL,NJ,All Others,Short-Term Hospital,Willingboro,Burlington County,No,Short Term,221,Point,40.04855791,-74.8822985
390225,WELLSPAN EPHRATA COMMUNITY HOSPITAL,PA,All Others,Short-Term Hospital,Ephrata,Lancaster County,No,Short Term,130,Point,40.18671638,-76.18418355
492010,CENTRA SPECIALTY HOSPITAL,VA,All Others,Long-Term Hospital,Lynchburg,Lynchburg City,No,Long Term,36,Point,37.43918254,-79.18797048
212003,DEER'S HEAD CENTER,MD,All Others,Long-Term Hospital,Salisbury,Wicomico County,No,Long Term,66,Point,38.38335324,-75.59334626
222007,HEBREW REHABILITATION CENTER,MA,All Others,Long-Term Hospital,Boston,Suffolk County,No,Long Term,675,Point,42.2966984,-71.13073505
224018,ARBOUR HUMAN RESOURCE INSTITUTE,MA,All Others,Psychiatric Hospital,Brookline,Norfolk County,No,Psychiatric,68,Point,42.35078016,-71.12116568
364056,ASSURANCE HEALTH CINCINNATI LLC,OH,All Others,Psychiatric Hospital,Blue Ash,Hamilton County,No,Psychiatric,28,Point,39.28151929,-84.36795043
394058,BERWICK FREE-STANDING PSYCHIATRIC HOSPITAL,PA,All Others,Psychiatric Hospital,Berwick,Columbia County,No,Psychiatric,14,Point,41.07014073,-76.23099363
224022,BOURNEWOOD HOSPITAL,MA,All Others,Psychiatric Hospital,Boston College,Norfolk County,No,Psychiatric,90,Point,42.29859321,-71.14928897
334049,FOUR WINDS OF SARATOGA,NY,All Others,Psychiatric Hospital,Saratoga Springs,Saratoga County,No,Psychiatric,83,Point,43.05825847,-73.78341688
364054,GENERATIONS BEHAVIORAL HEALTH - GENEVA,OH,All Others,Psychiatric Hospital,Geneva,Ashtabula County,Yes,Psychiatric,16,Point,41.79909901,-80.96330753
394053,HAVEN BEHAVIORAL HOSPITAL OF PHILADELPHIA,PA,All Others,Psychiatric Hospital,Philadelphia,Philadelphia County,No,Psychiatric,36,Point,40.01107552,-75.1860616
490050,VIRGINIA HOSPITAL CENTER,VA,All Others,Short-Term Hospital,Arlington,Arlington County,No,Short Term,342,Point,38.88878894,-77.12853402
510023,"WEIRTON MEDICAL CENTER, INC",WV,All Others,Short-Term Hospital,Weirton,Brooke County,No,Short Term,238,Point,40.39411321,-80.52934824
390046,WELLSPAN YORK HOSPITAL,PA,All Others,Short-Term Hospital,York,York County,No,Short Term,572,Point,39.94538366,-76.71974978
222046,VIBRA HOSPITAL OF WESTERN MASS - CENTRAL CAMPUS,MA,All Others,Long-Term Hospital,Rochdale,Worcester County,No,Long Term,174,Point,42.2018632,-71.89880504
364036,ARROWHEAD BEHAVIORAL HEALTH,OH,All Others,Psychiatric Hospital,Maumee,Lucas County,No,Psychiatric,42,Point,41.59030794,-83.68855125
314020,ESSEX COUNTY HOSPITAL CENTER,NJ,All Others,Psychiatric Hospital,Cedar Grove,Essex County,No,Psychiatric,180,Point,40.85120785,-74.23367554
364063,GEORGETOWN BEHAVIORAL HOSPITAL,OH,All Others,Psychiatric Hospital,Georgetown,Brown County,Yes,Psychiatric,49,Point,38.85870449,-83.89794611
314012,HACKENSACK MERIDIAN HEALTH CARRIER CLINIC,NJ,All Others,Psychiatric Hospital,Belle Mead,Somerset County,No,Psychiatric,281,Point,40.46818899,-74.68363202
364031,HEARTLAND BEHAVIORAL HEALTHCARE,OH,All Others,Psychiatric Hospital,Massillon,Stark County,No,Psychiatric,212,Point,40.82521314,-81.52485624
394020,PHILHAVEN HOSPITAL,PA,All Others,Psychiatric Hospital,Mount Gretna,Lebanon County,No,Psychiatric,103,Point,40.26689768,-76.46086703
314019,RAMAPO RIDGE BEHAVIORAL HEALTH HOSPITAL,NJ,All Others,Psychiatric Hospital,Wyckoff,Bergen County,No,Psychiatric,58,Point,40.98135098,-74.17224297
390027,TEMPLE UNIVERSITY HOSPITAL,PA,All Others,Short-Term Hospital,Philadelphia,Philadelphia County,No,Short Term,677,Point,40.0056337,-75.15198847
360003,"UNIVERSITY OF CINCINNATI MEDICAL CENTER, LLC",OH,All Others,Short-Term Hospital,Cincinnati,Hamilton County,No,Short Term,771,Point,39.13677346,-84.50236096
210002,UNIVERSITY OF MARYLAND MEDICAL CENTER,MD,All Others,Short-Term Hospital,Baltimore,Baltimore City,No,Short Term,816,Point,39.28815696,-76.62364556
390117,UPMC BEDFORD MEMORIAL,PA,All Others,Short-Term Hospital,Everett,Bedford County,Yes,Short Term,49,Point,40.02367162,-78.42883067
390104,UPMC KANE,PA,All Others,Short-Term Hospital,Kane,McKean County,Yes,Short Term,31,Point,41.67241392,-78.81699373
390164,UPMC PRESBYTERIAN SHADYSIDE,PA,All Others,Short-Term Hospital,Pittsburgh,Allegheny County,No,Short Term,1577,Point,40.44202056,-79.96106141
360029,WOOD COUNTY HOSPITAL,OH,All Others,Short-Term Hospital,Bowling Green,Wood County,Yes,Short Term,168,Point,41.37394,-83.66553957
330030,NEWARK-WAYNE COMMUNITY HOSPITAL,NY,All Others,Short-Term Hospital,Newark,Wayne County,Yes,Short Term,120,Point,43.06050432,-77.1009387
390067,UPMC PINNACLE HOSPITALS,PA,All Others,Short-Term Hospital,Harrisburg,Dauphin County,No,Short Term,717,Point,40.25651501,-76.87582693
492008,SELECT SPECIALTY HOSPITAL - HAMPTON ROADS,VA,All Others,Long-Term Hospital,Newport News,Newport News City,No,Long Term,25,Point,37.06496799,-76.48465525
512005,SELECT SPECIALTY HOSPITAL - WEIRTON,WV,All Others,Long-Term Hospital,Weirton,Brooke County,No,Long Term,49,Point,40.39382428,-80.52958738
312017,SPECIALTY HOSPITAL OF CENTRAL JERSEY,NJ,All Others,Long-Term Hospital,Lakewood,Ocean County,No,Long Term,50,Point,40.07294001,-74.21756803
362025,COMMUNITY SPECIALTY HOSPITAL,OH,All Others,Long-Term Hospital,Amherst,Lorain County,No,Long Term,30,Point,41.39969554,-82.22425322
204004,DOROTHEA DIX PSYCHIATRIC CENTER,ME,All Others,Psychiatric Hospital,Bangor,Penobscot County,No,Psychiatric,100,Point,44.81788481,-68.74155301
394054,EAST END BEHAVIORAL HEALTH HOSPITAL,PA,All Others,Psychiatric Hospital,Wilkinsburg,Allegheny County,No,Psychiatric,49,Point,40.44617748,-79.89212721
330410,TERENCE CARDINAL COOKE HEALTH CARE CENTER,NY,All Others,Short-Term Hospital,New York,New York County,No,Short Term,57,Point,40.79381424,-73.95112066
300018,WENTWORTH-DOUGLASS HOSPITAL,NH,All Others,Short-Term Hospital,Dover,Strafford County,No,Short Term,178,Point,43.21264349,-70.87528515
510072,WETZEL COUNTY HOSPITAL,WV,All Others,Short-Term Hospital,New Martinsville,Wetzel County,Yes,Short Term,58,Point,39.68001814,-80.85011705
200009,MAINE MEDICAL CENTER,ME,All Others,Short-Term Hospital,Portland,Cumberland County,No,Short Term,606,Point,43.65244702,-70.27554304
392027,KINDRED HOSPITAL PHILADELPHIA,PA,All Others,Long-Term Hospital,Philadelphia,Philadelphia County,No,Long Term,52,Point,40.04615421,-75.09732404
312014,"MATHENY SCHOOL & HOSPITAL, THE",NJ,All Others,Long-Term Hospital,Far Hills,Somerset County,No,Long Term,102,Point,40.70892149,-74.64387028
222002,PAM HEALTH SPECIALTY HOSPITAL OF STOUGHTON,MA,All Others,Long-Term Hospital,Stoughton,Norfolk County,No,Long Term,198,Point,42.100197,-71.08296909
222043,VIBRA HOSPITAL OF SOUTHEASTERN MASSACHUSETTS,MA,All Others,Long-Term Hospital,New Bedford,Bristol County,No,Long Term,90,Point,41.74047191,-70.94561183
474001,BRATTLEBORO RETREAT,VT,All Others,Psychiatric Hospital,Brattleboro,Windham County,Yes,Psychiatric,149,Point,42.85475998,-72.55914998
394049,BROOKE GLEN BEHAVIORAL HOSPITAL,PA,All Others,Psychiatric Hospital,Fort Washington,Montgomery County,No,Psychiatric,146,Point,40.13505591,-75.21608664
334052,BUFFALO PSYCHIATRIC CENTER,NY,All Others,Psychiatric Hospital,Buffalo,Erie County,No,Psychiatric,260,Point,42.92804673,-78.8809562
514011,"HIGHLAND-CLARKSBURG HOSPITAL, INC",WV,All Others,Psychiatric Hospital,Clarksburg,Harrison County,Yes,Psychiatric,150,Point,39.27173861,-80.37190249
314024,HUDSON COUNTY MEADOWVIEW PSYCHIATRIC H,NJ,All Others,Psychiatric Hospital,Secaucus,Hudson County,No,Psychiatric,84,Point,40.784527,-74.05939004
334063,KINGSBORO PSYCHIATRIC HOSPITAL,NY,All Others,Psychiatric Hospital,Brooklyn,Kings County,No,Psychiatric,173,Point,40.65650676,-73.93650237
394040,MEADOWS PSYCHIATRIC CENTER,PA,All Others,Psychiatric Hospital,Centre Hall,Centre County,No,Psychiatric,101,Point,40.84747688,-77.65284001
070006,STAMFORD HOSPITAL,CT,All Others,Short-Term Hospital,Stamford,Fairfield County,No,Short Term,305,Point,41.05498801,-73.55391249
360020,SUMMA HEALTH SYSTEM,OH,All Others,Short-Term Hospital,Akron,Summit County,No,Short Term,1093,Point,41.07881981,-81.50114358
390316,SURGICAL INSTITUTE OF READING,PA,All Others,Short-Term Hospital,Wyomissing,Berks County,No,Short Term,15,Point,40.35801969,-75.98749917
490033,WARREN MEMORIAL HOSPITAL,VA,All Others,Short-Term Hospital,Front Royal,Warren County,Yes,Short Term,196,Point,38.92045682,-78.15129536
390138,WELLSPAN WAYNESBORO HOSPITAL,PA,All Others,Short-Term Hospital,Waynesboro,Franklin County,Yes,Short Term,57,Point,39.75112107,-77.56855217
412001,ELEANOR SLATER HOSPITAL,RI,All Others,Long-Term Hospital,Cranston,Providence County,No,Long Term,250,Point,41.74357079,-71.46366906
072004,HOSPITAL FOR SPECIAL CARE,CT,All Others,Long-Term Hospital,New Britain,Hartford County,No,Long Term,228,Point,41.68837474,-72.80039289
364066,ASSURANCE HEALTH TOLEDO LLC,OH,All Others,Psychiatric Hospital,Sylvania,Lucas County,No,Psychiatric,65,Point,41.6897034,-83.72318552
394008,FRIENDS HOSPITAL,PA,All Others,Psychiatric Hospital,Philadelphia,Philadelphia County,No,Psychiatric,192,Point,40.02843448,-75.10084899
334048,GRACIE SQUARE HOSP,NY,All Others,Psychiatric Hospital,New York,New York County,No,Psychiatric,157,Point,40.76977879,-73.9529091
360037,ST VINCENT CHARITY MEDICAL CENTER,OH,All Others,Short-Term Hospital,Cleveland,Cuyahoga County,No,Short Term,448,Point,41.49663719,-81.67395152
070028,ST VINCENT'S MEDICAL CENTER,CT,All Others,Short-Term Hospital,Bridgeport,Fairfield County,No,Short Term,397,Point,41.20075379,-73.20300076
330285,STRONG MEMORIAL HOSPITAL,NY,All Others,Short-Term Hospital,Rochester,Monroe County,No,Short Term,739,Point,43.12283219,-77.62358741
330057,ST PETER'S HOSPITAL,NY,All Others,Short-Term Hospital,Albany,Albany County,No,Short Term,482,Point,42.65652123,-73.80378289
210022,SUBURBAN HOSPITAL,MD,All Others,Short-Term Hospital,Bethesda,Montgomery County,No,Short Term,229,Point,38.99746158,-77.10927316
360352,SURGICAL HOSPITAL AT SOUTHWOODS,OH,All Others,Short-Term Hospital,Youngstown,Mahoning County,No,Short Term,36,Point,41.01555204,-80.65338079
210043,UMD BALTIMORE WASHINGTON  MEDICAL CENTER,MD,All Others,Short-Term Hospital,Glen Burnie,Anne Arundel County,No,Short Term,329,Point,39.1388849,-76.62254133
390150,WASHINGTON HEALTH SYSTEM GREENE,PA,All Others,Short-Term Hospital,Waynesburg,Greene County,Yes,Short Term,18,Point,39.90047896,-80.17390869
510086,WELCH COMMUNITY HOSPITAL,WV,All Others,Short-Term Hospital,Welch,McDowell County,Yes,Short Term,124,Point,37.43915019,-81.58928248
332006,CALVARY HOSPITAL INC,NY,All Others,Long-Term Hospital,Bronx,Bronx County,No,Long Term,225,Point,40.84780844,-73.84425961
072003,GAYLORD HOSPITAL INC,CT,All Others,Long-Term Hospital,Wallingford,New Haven County,No,Long Term,137,Point,41.47419871,-72.85740865
364015,APPALACHIAN BEHAVIORAL HEALTH CARE,OH,All Others,Psychiatric Hospital,Athens,Athens County,Yes,Psychiatric,40,Point,39.32816747,-82.11847846
334061,MID HUDSON FORENSIC PSYCHIATRIC CTR,NY,All Others,Psychiatric Hospital,New Hampton,Orange County,No,Psychiatric,280,Point,41.39014998,-74.42751995
334021,MOHAWK VALLEY PSYCHIATRIC CENTER,NY,All Others,Psychiatric Hospital,Utica,Oneida County,No,Psychiatric,189,Point,43.10192965,-75.2595199
394001,NORRISTOWN STATE HOSPITAL,PA,All Others,Psychiatric Hospital,Norristown,Montgomery County,No,Psychiatric,289,Point,40.13506798,-75.34551798
364011,NORTHCOAST BEHAVIORAL HEALTHCARE NORTHFIELD CAMPUS,OH,All Others,Psychiatric Hospital,Northfield,Summit County,No,Psychiatric,260,Point,41.34890498,-81.57515503
334003,ST LAWRENCE PSYCHIATRIC CENTER,NY,All Others,Psychiatric Hospital,Ogdensburg,St. Lawrence County,Yes,Psychiatric,108,Point,44.72641118,-75.45340335
314001,SUMMIT OAKS HOSPITAL,NJ,All Others,Psychiatric Hospital,Summit,Union County,No,Psychiatric,126,Point,40.71330098,-74.36251343
223027,ENCOMPASS HEALTH BRAINTREE HOSPITAL OF BRAINTREE,MA,All Others,Rehabilitation Hospital,Braintree,Norfolk County,No,Rehabilitation,187,Point,42.19809499,-71.0187063
493032,ENCOMPASS HEALTH REHAB HOSPITAL OF FREDERICKSBURG,VA,All Others,Rehabilitation Hospital,Fredericksburg,Fredericksburg City,No,Rehabilitation,58,Point,38.31326597,-77.48662418
493031,ENCOMPASS HEALTH REHAB HOSPITAL OF PETERSBURG,VA,All Others,Rehabilitation Hospital,Petersburg,Petersburg City,No,Rehabilitation,64,Point,37.18462901,-77.364023
223030,ENCOMPASS HEALTH REHAB HOSPITAL OF WESTERN MASS,MA,All Others,Rehabilitation Hospital,Ludlow,Hampden County,No,Rehabilitation,53,Point,42.15497836,-72.47074613
331317,LEWIS COUNTY GENERAL HOSPITAL,NY,Critical Access Hospitals,Critical Access Hospital,Lowville,Lewis County,Yes,Critical Access Hospitals,25,Point,43.79542841,-75.49911568
361303,LODI COMMUNITY HOSPITAL,OH,Critical Access Hospitals,Critical Access Hospital,Lodi,Medina County,No,Critical Access Hospitals,20,Point,41.03625483,-82.01362454
361300,PAULDING COUNTY HOSPITAL,OH,Critical Access Hospitals,Critical Access Hospital,Paulding,Paulding County,Yes,Critical Access Hospitals,25,Point,41.13526246,-84.60112098
36021E,MASONIC-RICKLEY MEM HOSP,OH,All Others,Data not provided by CMS,Springfield,Clark County,No,Data not provided by CMS,343,Point,39.92461562,-83.86352921
21010F,PERRY POINT VA MEDICAL CENTER,MD,All Others,Data not provided by CMS,Perry Point,Cecil County,No,Data not provided by CMS,505,Point,39.552915,-76.07232999
36024E,SAGAMORE HILLS HOSP,OH,All Others,Data not provided by CMS,Northfield,Summit County,No,Data not provided by CMS,92,Point,41.34735173,-81.56176444
364041,OHIO HOSPITAL FOR PSYCHIATRY,OH,All Others,Psychiatric Hospital,Columbus,Franklin County,No,Psychiatric,78,Point,39.93986263,-83.02015038
364007,TWIN VALLEY BEHAVIORAL HEALTHCARE,OH,All Others,Psychiatric Hospital,Columbus,Franklin County,No,Psychiatric,176,Point,39.95567501,-83.05921214
474004,VERMONT PSYCHIATRIC CARE HOSPITAL,VT,All Others,Psychiatric Hospital,Berlin,Washington County,Yes,Psychiatric,25,Point,44.22228287,-72.56534019
224039,WHITTIER PAVILION,MA,All Others,Psychiatric Hospital,Haverhill,Essex County,No,Psychiatric,71,Point,42.77859489,-71.07321608
223029,"FAIRLAWN REHAB HOSP, AN AFFILIATE OF ENCOMPASS HLT",MA,All Others,Rehabilitation Hospital,Worcester,Worcester County,No,Rehabilitation,110,Point,42.2599728,-71.83521448
313027,ST LAWRENCE REHABILITATION CENTER,NJ,All Others,Rehabilitation Hospital,Lawrenceville,Mercer County,No,Rehabilitation,86,Point,40.26608999,-74.74202003
363039,UNIVERSITY HOSPITALS AVON REHABILITATION HOSPITAL,OH,All Others,Rehabilitation Hospital,Avon,Lorain County,No,Rehabilitation,50,Point,41.46707745,-82.04441496
491300,BATH COMMUNITY HOSPITAL,VA,Critical Access Hospitals,Critical Access Hospital,Hot Springs,Bath County,Yes,Critical Access Hospitals,25,Point,37.97244999,-79.86593997
361325,GALION COMMUNITY HOSPITAL,OH,Critical Access Hospitals,Critical Access Hospital,Galion,Crawford County,Yes,Critical Access Hospitals,35,Point,40.73121613,-82.80326327
49001F,DEWITT ARMY HOSP,VA,All Others,Data not provided by CMS,Fort Belvoir,Fairfax County,No,Data not provided by CMS,240,Point,38.69559,-77.13837499
49036E,ST GERARDS MATERNITY HOME,VA,All Others,Data not provided by CMS,Richmond,Richmond City,No,Data not provided by CMS,14,Point,37.51506618,-77.45599469
49037E,UNIVERSITY OF VIRGINIA CHILDRENS REHAB,VA,All Others,Data not provided by CMS,Charlottesville,Albemarle County,No,Data not provided by CMS,30,Point,38.04607345,-78.52012424
224023,WESTWOOD PEMBROKE HEALTH SYSTEMS,MA,All Others,Psychiatric Hospital,Westwood,Norfolk County,No,Psychiatric,248,Point,42.20676624,-71.22329808
393031,ENCOMPASS HEALTH REHABILITATION HOSPITAL OF MECHAN,PA,All Others,Rehabilitation Hospital,Mechanicsburg,Cumberland County,No,Rehabilitation,75,Point,40.20998233,-76.97406636
511313,"BOONE MEMORIAL HOSPITAL, INC",WV,Critical Access Hospitals,Critical Access Hospital,Madison,Boone County,Yes,Critical Access Hospitals,25,Point,38.04819822,-81.80689085
221302,FAIRVIEW HOSPITAL,MA,Critical Access Hospitals,Critical Access Hospital,Great Barrington,Berkshire County,Yes,Critical Access Hospitals,25,Point,42.19109929,-73.37191807
51002F,BECKLEY VA MEDICAL CENTER,WV,All Others,Data not provided by CMS,Beckley,Raleigh County,No,Data not provided by CMS,172,Point,37.76511406,-81.1926877
491308,RAPPAHANNOCK GENERAL HOSPITAL,VA,Critical Access Hospitals,Critical Access Hospital,Kilmarnock,Lancaster County,Yes,Critical Access Hospitals,76,Point,37.70106698,-76.38705997
49005F,US AIR FORCE HOSP,VA,All Others,Data not provided by CMS,Hampton,Hampton City,No,Data not provided by CMS,90,Point,37.08288,-76.36054999
394026,TORRANCE STATE HOSPITAL,PA,All Others,Psychiatric Hospital,Torrance,Westmoreland County,No,Psychiatric,357,Point,40.41526229,-79.23794279
224038,"WALDEN BEHAVIORAL CARE, LLC",MA,All Others,Psychiatric Hospital,Dedham,Norfolk County,No,Psychiatric,45,Point,42.22710438,-71.17224022
334065,WESTERN NY CHILDRENS PSYCHIATRIC CENTER,NY,All Others,Psychiatric Hospital,West Seneca,Erie County,No,Psychiatric,46,Point,42.82033727,-78.73283189
363033,THE REHABILITATION INSTITUTE OF OHIO,OH,All Others,Rehabilitation Hospital,Dayton,Montgomery County,No,Rehabilitation,60,Point,39.74706351,-84.18849833
493029,UVA ENCOMPASS HEALTH REHABILITATION HOSPITAL,VA,All Others,Rehabilitation Hospital,Charlottesville,Albemarle County,No,Rehabilitation,50,Point,38.02418838,-78.52550492
331303,GARNET HEALTH MEDICAL CENTER-CATSKILLS(GMHERMANN),NY,Critical Access Hospitals,Critical Access Hospital,Cochecton,Sullivan County,Yes,Critical Access Hospitals,15,Point,41.69697997,-75.05193563
361310,MERCY HEALTH - WILLARD HOSPITAL,OH,Critical Access Hospitals,Critical Access Hospital,Willard,Huron County,Yes,Critical Access Hospitals,15,Point,41.03935978,-82.7076219
21005F,BALTIMORE VA REHAB & EXTENDED CARE CENTER (BRECC),MD,All Others,Data not provided by CMS,Baltimore,Baltimore City,No,Data not provided by CMS,120,Point,39.33620345,-76.59443312
36009F,CHALMERS P WYLIE OUTPATIENT CLINIC,OH,All Others,Data not provided by CMS,Columbus,Franklin County,No,Data not provided by CMS,20,Point,39.97862109,-82.96093265
36015E,DAYTON CHILDRENS HOSP,OH,All Others,Data not provided by CMS,Dayton,Montgomery County,No,Data not provided by CMS,84,Point,39.75779414,-84.17850921
22002F,U S PUB HLTH SERV HOSP,MA,All Others,Data not provided by CMS,Boston,Suffolk County,No,Data not provided by CMS,211,Point,42.34894226,-71.14273164
20003F,VA HOSP,ME,All Others,Data not provided by CMS,Town of Chelsea,Kennebec County,Yes,Data not provided by CMS,841,Point,44.27451,-69.70309999
33009F,VA HOSP,NY,All Others,Data not provided by CMS,Albany,Albany County,No,Data not provided by CMS,975,Point,42.65074056,-73.77193736
314018,NORTHBROOK BEHAVIORAL HEALTH HOSPITAL,NJ,All Others,Psychiatric Hospital,Blackwood,Camden County,No,Psychiatric,150,Point,39.78846052,-75.07430566
364014,NORTHWEST OHIO PSYCHIATRIC HOSPITAL,OH,All Others,Psychiatric Hospital,Toledo,Lucas County,No,Psychiatric,114,Point,41.62085142,-83.59841503
074014,SILVER HILL HOSPITAL INC,CT,All Others,Psychiatric Hospital,New Canaan,Fairfield County,No,Psychiatric,129,Point,41.16525408,-73.46831247
494017,SOUTHERN VIRGINIA MENTAL HEALTH INSTITUTE,VA,All Others,Psychiatric Hospital,Danville,Danville City,Yes,Psychiatric,96,Point,36.55585258,-79.40963352
364035,SUMMIT BEHAVIORAL HEALTHCARE,OH,All Others,Psychiatric Hospital,Cincinnati,Hamilton County,No,Psychiatric,291,Point,39.19539301,-84.47011997
364064,SUNRISEVISTA HEALTH AND WELLNESS,OH,All Others,Psychiatric Hospital,Canton,Stark County,No,Psychiatric,12,Point,40.80980506,-81.37188063
513027,ENCOMPASS HEALTH REHAB HOSPITAL OF PARKERSBURG,WV,All Others,Rehabilitation Hospital,Parkersburg,Wood County,No,Rehabilitation,40,Point,39.30596901,-81.5333176
393045,ENCOMPASS HEALTH REHAB HOSPITAL OF SEWICKLEY,PA,All Others,Rehabilitation Hospital,Sewickley,Allegheny County,No,Rehabilitation,55,Point,40.57782814,-80.20136739
313036,ENCOMPASS HEALTH REHAB HOSPITAL OF VINELAND,NJ,All Others,Rehabilitation Hospital,Vineland,Cumberland County,No,Rehabilitation,41,Point,39.44513299,-75.05257298
083027,PAM REHABILITATION HOSPITAL OF DOVER,DE,All Others,Rehabilitation Hospital,Dover,Kent County,No,Rehabilitation,34,Point,39.17768025,-75.5552565
363044,REUNION REHABILITATION HOSPITAL OF DUBLIN,OH,All Others,Rehabilitation Hospital,Dublin,Franklin County,No,Rehabilitation,30,Point,40.12371171,-83.09296623
393309,SHRINERS HOSPITALS FOR CHILDREN - PHILADELPHIA,PA,All Others,Children's Hospital,Philadelphia,Philadelphia County,No,Childrens,53,Point,40.00597187,-75.15191152
301312,HUGGINS HOSPITAL,NH,Critical Access Hospitals,Critical Access Hospital,Wolfeboro,Carroll County,Yes,Critical Access Hospitals,25,Point,43.58098098,-71.20160228
491309,LEE COUNTY COMMUNITY HOSPITAL,VA,Critical Access Hospitals,Critical Access Hospital,Pennington Gap,Lee County,Yes,Critical Access Hospitals,6,Point,36.74958853,-83.05001334
511312,PRESTON MEMORIAL HOSPITAL,WV,Critical Access Hospitals,Critical Access Hospital,Kingwood,Preston County,Yes,Critical Access Hospitals,25,Point,39.4659668,-79.67698278
21015E,MARYLAND PENITENTIARY HOSP,MD,All Others,Data not provided by CMS,Baltimore,Baltimore City,No,Data not provided by CMS,37,Point,39.30034785,-76.60777333
30005E,MOORE GEN HOSP,NH,All Others,Data not provided by CMS,Goffstown,Hillsborough County,No,Data not provided by CMS,41,Point,43.02402499,-71.60405001
334020,ROCHESTER PSYCHIATRIC CENTER,NY,All Others,Psychiatric Hospital,Rochester,Monroe County,No,Psychiatric,247,Point,43.12346418,-77.61472363
394050,ROXBURY TREATMENT CENTER,PA,All Others,Psychiatric Hospital,Shippensburg,Franklin County,Yes,Psychiatric,26,Point,40.05387315,-77.53757509
334013,PILGRIM PSYCHIATRIC CENTER,NY,All Others,Psychiatric Hospital,West Brentwood,Suffolk County,No,Psychiatric,560,Point,40.79434116,-73.28694175
393030,ALLIED SERVICES INSTITUTE OF REHABILITATION,PA,All Others,Rehabilitation Hospital,Scranton,Lackawanna County,No,Rehabilitation,50,Point,41.45164133,-75.67784564
223302,BOSTON CHILDREN'S HOSPITAL,MA,All Others,Children's Hospital,Boston,Suffolk County,No,Childrens,395,Point,42.33748315,-71.1048835
363304,CLEVELAND CLINIC CHILDREN'S HOSPITAL FOR REHAB,OH,All Others,Children's Hospital,Cleveland,Cuyahoga County,No,Childrens,52,Point,41.48315189,-81.60911724
223300,FRANCISCAN CHILDREN'S HOSPITAL & REHAB CENTER,MA,All Others,Children's Hospital,Brighton,Suffolk County,No,Childrens,112,Point,42.35007922,-71.14355248
391304,BUCKTAIL MEDICAL CENTER,PA,Critical Access Hospitals,Critical Access Hospital,Renovo,Clinton County,Yes,Critical Access Hospitals,16,Point,41.32705034,-77.73722154
511316,GRANT MEMORIAL HOSPITAL,WV,Critical Access Hospitals,Critical Access Hospital,Petersburg,Grant County,Yes,Critical Access Hospitals,45,Point,39.00112723,-79.13782172
471302,MT ASCUTNEY HOSPITAL,VT,Critical Access Hospitals,Critical Access Hospital,Windsor,Windsor County,Yes,Critical Access Hospitals,25,Point,43.48890779,-72.40243312
07006E,HILLSIDE HOME  HOSP,CT,All Others,Data not provided by CMS,Bridgeport,Fairfield County,No,Data not provided by CMS,314,Point,41.19982,-73.16735496
201315,STEPHENS MEMORIAL HOSPITAL,ME,Critical Access Hospitals,Critical Access Hospital,Norway,Oxford County,Yes,Critical Access Hospitals,25,Point,44.20976458,-70.53235584
511310,SUMMERS COUNTY ARH HOSPITAL,WV,Critical Access Hospitals,Critical Access Hospital,Hinton,Summers County,Yes,Critical Access Hospitals,25,Point,37.65072745,-80.86089559
314011,UNIVERSITY BEHAVIORAL HEALTH CARE,NJ,All Others,Psychiatric Hospital,Piscataway,Middlesex County,No,Psychiatric,48,Point,40.52615953,-74.47132613
494025,VIRGINIA BEACH PSYCHIATRIC CENTER,VA,All Others,Psychiatric Hospital,Virginia Beach,Virginia Beach City,No,Psychiatric,100,Point,36.86596036,-76.02914449
303027,ENCOMPASS HEALTH REHABILITATION HOSPITAL OF CONCOR,NH,All Others,Rehabilitation Hospital,Concord,Merrimack County,Yes,Rehabilitation,50,Point,43.20129301,-71.56315098
393037,"ENCOMPASS HEALTH REHABILITATION HOSPITAL OF YORK,",PA,All Others,Rehabilitation Hospital,York,York County,No,Rehabilitation,90,Point,39.98134857,-76.78195297
393047,GEISINGER ENCOMPASS HEALTH REHABILITATION HOSPITAL,PA,All Others,Rehabilitation Hospital,Danville,Montour County,No,Rehabilitation,42,Point,40.97126286,-76.60011261
223032,SPAULDING REHABILITATION HOSPITAL - CAPE COD,MA,All Others,Rehabilitation Hospital,East Sandwich,Barnstable County,No,Rehabilitation,60,Point,41.73284824,-70.46788987
393055,ST MARY REHABILITATION HOSPITAL,PA,All Others,Rehabilitation Hospital,Langhorne,Bucks County,No,Rehabilitation,50,Point,40.20066848,-74.92954885
333030,WINIFRED MASTERSON BURKE REHABILITATION HOSPITAL,NY,All Others,Rehabilitation Hospital,White Plains,Westchester County,No,Rehabilitation,150,Point,41.0164248,-73.75327338
391306,ENDLESS MOUNTAINS HEALTH SYSTEMS,PA,Critical Access Hospitals,Critical Access Hospital,Montrose,Susquehanna County,Yes,Critical Access Hospitals,25,Point,41.83698907,-75.83738406
223303,SHRINERS' HOSPITAL FOR CHILDREN (THE),MA,All Others,Children's Hospital,Springfield,Hampden County,No,Childrens,40,Point,42.12122892,-72.59274859
223304,"SHRINERS' HOSPITAL FOR CHILDREN - BOSTON, THE",MA,All Others,Children's Hospital,Boston,Suffolk County,No,Childrens,30,Point,42.36309732,-71.06645121
073300,CONNECTICUT CHILDRENS MEDICAL CENTER,CT,All Others,Children's Hospital,Hartford,Hartford County,No,Childrens,129,Point,41.75384063,-72.68278783
333301,BLYTHEDALE CHILDREN'S HOSPITAL,NY,All Others,Children's Hospital,Valhalla,Westchester County,No,Childrens,100,Point,41.07461042,-73.79981557
313302,WEISMAN CHILDRENS REHABILITATION HOSPITAL,NJ,All Others,Children's Hospital,Marlton,Burlington County,No,Childrens,30,Point,39.8804986,-74.91860862
313300,CHILDREN'S SPECIALIZED HOSPITAL,NJ,All Others,Children's Hospital,New Brunswick,Middlesex County,No,Childrens,90,Point,40.49519351,-74.45166252
213300,MOUNT WASHINGTON PEDIATRIC HOSPITAL,MD,All Others,Children's Hospital,Baltimore,Baltimore City,No,Childrens,117,Point,39.36217667,-76.65327684
213301,KENNEDY KRIEGER INSTITUTE,MD,All Others,Children's Hospital,Baltimore,Baltimore City,No,Childrens,63,Point,39.298705,-76.59414252
493301,CHILDRENS HOSPITAL OF THE KINGS DAUGHTERS INC,VA,All Others,Children's Hospital,Norfolk,Norfolk City,No,Childrens,206,Point,36.86186639,-76.30135861
393303,CHILDREN'S HOSPITAL OF PHILADELPHIA,PA,All Others,Children's Hospital,Philadelphia,Philadelphia County,No,Childrens,514,Point,39.94868999,-75.19290003
393304,CHILDREN'S HOME OF PITTSBURGH,PA,All Others,Children's Hospital,Pittsburgh,Allegheny County,No,Childrens,30,Point,40.4646131,-79.93739544
393302,UPMC CHILDREN'S HOSPITAL OF PITTSBURGH,PA,All Others,Children's Hospital,Pittsburgh,Allegheny County,No,Childrens,312,Point,40.46651746,-79.95246634
393307,ST CHRISTOPHER'S HOSPITAL FOR CHILDREN,PA,All Others,Children's Hospital,Philadelphia,Philadelphia County,No,Childrens,189,Point,40.00732291,-75.12434755
083300,"NEMOURS CHILDREN'S HOSPITAL, DELAWARE",DE,All Others,Children's Hospital,Wilmington,New Castle County,No,Childrens,260,Point,39.74816,-75.55188999
363300,CINCINNATI CHILDREN'S HOSPITAL MEDICAL CENTER,OH,All Others,Children's Hospital,Cincinnati,Hamilton County,No,Childrens,523,Point,39.1410569,-84.5004068
363305,NATIONWIDE CHILDREN'S HOSPITAL,OH,All Others,Children's Hospital,Columbus,Franklin County,No,Childrens,378,Point,39.95245376,-82.981055
363309,"NATIONWIDE CHILDREN’S HOSPITAL TOLEDO, LLC",OH,All Others,Children's Hospital,Toledo,Lucas County,No,Childrens,76,Point,41.66875178,-83.54195252
363308,SHRINERS HOSPITALS FOR CHILDREN - CINCINNATI,OH,All Others,Children's Hospital,Dayton,Montgomery County,No,Childrens,30,Point,39.77357074,-84.16912465
363303,AKRON CHILDREN'S HOSPITAL,OH,All Others,Children's Hospital,Akron,Summit County,No,Childrens,253,Point,41.07917684,-81.52456656
363302,RAINBOW BABIES AND CHILDRENS HOSPITAL,OH,All Others,Children's Hospital,Cleveland,Cuyahoga County,No,Childrens,244,Point,41.50733493,-81.60725395
363306,DAYTON CHILDRENS HOSPITAL,OH,All Others,Children's Hospital,Dayton,Montgomery County,No,Childrens,155,Point,39.77357074,-84.16912465
331318,"CARTHAGE AREA HOSPITAL, INC",NY,Critical Access Hospitals,Critical Access Hospital,Carthage,Jefferson County,No,Critical Access Hospitals,25,Point,43.98669389,-75.5941528
511317,PLATEAU MEDICAL CENTER,WV,Critical Access Hospitals,Critical Access Hospital,Oak Hill,Fayette County,No,Critical Access Hospitals,25,Point,37.97129622,-81.14947965
511318,MONTGOMERY GENERAL HOSPITAL,WV,Critical Access Hospitals,Critical Access Hospital,Montgomery,Fayette County,No,Critical Access Hospitals,69,Point,38.18286523,-81.3242462
511319,JEFFERSON MEDICAL CENTER,WV,Critical Access Hospitals,Critical Access Hospital,Ranson,Jefferson County,No,Critical Access Hospitals,25,Point,39.29624923,-77.85846527
391300,GEISINGER JERSEY SHORE HOSPITAL,PA,Critical Access Hospitals,Critical Access Hospital,Jersey Shore,Lycoming County,No,Critical Access Hospitals,25,Point,41.20174223,-77.26851851
391307,PENN HIGHLANDS TYRONE,PA,Critical Access Hospitals,Critical Access Hospital,Tyrone,Blair County,No,Critical Access Hospitals,25,Point,40.67498957,-78.25199839
361324,OHIOHEALTH SHELBY HOSPITAL,OH,Critical Access Hospitals,Critical Access Hospital,Shelby,Richland County,No,Critical Access Hospitals,25,Point,40.88123853,-82.67398582
22005F,US NAVAL HOSP,MA,All Others,Data not provided by CMS,Chelsea,Suffolk County,No,Data not provided by CMS,500,Point,42.39255,-71.03750999
22010F,VA HOSP,MA,All Others,Data not provided by CMS,Boston,Suffolk County,No,Data not provided by CMS,920,Point,42.3267953,-71.11016862
22009F,VA HOSP,MA,All Others,Data not provided by CMS,Northampton,Hampshire County,No,Data not provided by CMS,1014,Point,42.32732634,-72.65025835
22008F,US ARMY HOSP,MA,All Others,Data not provided by CMS,Ayer,Middlesex County,No,Data not provided by CMS,150,Point,42.561545,-71.58662499
22006F,US AIR FORCE HOSP,MA,All Others,Data not provided by CMS,Chicopee,Hampden County,No,Data not provided by CMS,90,Point,42.20044,-72.54566999
22001F,VA HOSP,MA,All Others,Data not provided by CMS,Bedford,Middlesex County,No,Data not provided by CMS,993,Point,42.50502285,-71.27464838
22003F,VA HOSP,MA,All Others,Data not provided by CMS,Boston,Suffolk County,No,Data not provided by CMS,920,Point,42.27425309,-71.1718544
22004F,VA HOSP,MA,All Others,Data not provided by CMS,Brockton,Plymouth County,No,Data not provided by CMS,988,Point,42.08031999,-71.02193995
22007F,US AIR FORCE HOSP,MA,All Others,Data not provided by CMS,Falmouth,Barnstable County,No,Data not provided by CMS,50,Point,41.54856,-70.59884499
41001F,US NAVAL HOSP,RI,All Others,Data not provided by CMS,Newport,Newport County,No,Data not provided by CMS,300,Point,41.50032523,-71.32117029
41002F,VA HOSP,RI,All Others,Data not provided by CMS,Providence,Providence County,No,Data not provided by CMS,370,Point,41.83558933,-71.41716999
41004F,US NAVAL HOSP,RI,All Others,Data not provided by CMS,North Kingstown,Washington County,No,Data not provided by CMS,40,Point,41.5901,-71.40421999
41005F,VETERANS AFFAIRS MEDICAL CENTER,RI,All Others,Data not provided by CMS,Providence,Providence County,No,Data not provided by CMS,78,Point,41.83126301,-71.43179096
30002F,US NAVAL HOSP,NH,All Others,Data not provided by CMS,Portsmouth,Rockingham County,No,Data not provided by CMS,125,Point,43.0731251,-70.75837989
30001F,VA HOSP,NH,All Others,Data not provided by CMS,Manchester,Hillsborough County,No,Data not provided by CMS,150,Point,43.01167839,-71.43970759
07004F,US NAVAL HOSP,CT,All Others,Data not provided by CMS,Groton,New London County,No,Data not provided by CMS,0,Point,41.40117,-72.08968001
07001F,US COAST GUARD ACADEMY HOSP,CT,All Others,Data not provided by CMS,New London,New London County,No,Data not provided by CMS,55,Point,41.3760001,-72.10277986
07002F,VA HOSP,CT,All Others,Data not provided by CMS,Newington,Hartford County,No,Data not provided by CMS,198,Point,41.70118799,-72.74047301
07007E,CONNECTICUT MENTAL HEALTH CENTER,CT,All Others,Data not provided by CMS,New Haven,New Haven County,No,Data not provided by CMS,42,Point,41.30524867,-72.93623345
07003F,VETERANS ADMINISTRATION HOSPITAL,CT,All Others,Data not provided by CMS,West Haven,New Haven County,No,Data not provided by CMS,813,Point,41.27934044,-72.96562491
479801,UNIVERSITY OF VERMONT MEDICAL  CENTER - TRANSPLANT,VT,All Others,Data not provided by CMS,Burlington,Chittenden County,No,Transplant Hospitals,0,Point,44.48110619,-73.19512622
229807,TUFTS MEDICAL CENTER - TRANSPLANT,MA,All Others,Data not provided by CMS,Boston,Suffolk County,No,Transplant Hospitals,0,Point,42.350573,-71.062862
229806,BOSTON CHILDREN'S HOSPITAL - TRANSPLANT CENTER,MA,All Others,Data not provided by CMS,Boston,Suffolk County,No,Transplant Hospitals,0,Point,42.33748315,-71.1048835
229801,BRIGHAM AND WOMEN'S HOSPITAL -  TRANSPLANT CENTER,MA,All Others,Data not provided by CMS,Boston,Suffolk County,No,Transplant Hospitals,0,Point,42.33594415,-71.10674872
229804,BOSTON MEDICAL CENTER - TRANSPLANT CENTER,MA,All Others,Data not provided by CMS,Boston,Suffolk County,No,Transplant Hospitals,0,Point,42.33478129,-71.07437748
229803,BETH ISRAEL DEACONESS MED CTR -  TRANSPLANT CENTER,MA,All Others,Data not provided by CMS,Boston,Suffolk County,No,Transplant Hospitals,0,Point,42.34093829,-71.10502096
229805,UNIVERSITY OF MASS MEMORIAL MED CTR - TRANSPLANT,MA,All Others,Data not provided by CMS,Worcester,Worcester County,No,Transplant Hospitals,0,Point,42.27757354,-71.76167233
229809,BAYSTATE MEDICAL CENTER - TRANSPLANT CENTER,MA,All Others,Data not provided by CMS,Springfield,Hampden County,No,Transplant Hospitals,0,Point,42.12190236,-72.602987
229802,LAHEY CLINIC - TRANSPLANT CENTER,MA,All Others,Data not provided by CMS,Burlington,Middlesex County,No,Transplant Hospitals,0,Point,42.48627266,-71.2063998
229808,MASSACHUSETTS GENERAL HOSPITAL - TRANSPLANT CENTER,MA,All Others,Data not provided by CMS,Boston,Suffolk County,No,Transplant Hospitals,0,Point,42.36321505,-71.06877266
419801,RHODE ISLAND HOSPITAL - TRANSPLANT CENTER,RI,All Others,Data not provided by CMS,Providence,Providence County,No,Transplant Hospitals,0,Point,41.8112319,-71.40713828
079802,HARTFORD HOSPITAL - TRANSPLANT CENTER,CT,All Others,Data not provided by CMS,Hartford,Hartford County,No,Transplant Hospitals,0,Point,41.75426903,-72.68071247
079801,YALE-NEW HAVEN HOSPITAL -  TRANSPLANT CENTER,CT,All Others,Data not provided by CMS,New Haven,New Haven County,No,Transplant Hospitals,0,Point,41.3036129,-72.93539585
209801,MAINE MEDICAL CENTER -TRANSPLANT CENTER,ME,All Others,Data not provided by CMS,Portland,Cumberland County,No,Transplant Hospitals,0,Point,43.65244702,-70.27554304
33016F,VA HOSP,NY,All Others,Data not provided by CMS,Bronx,Bronx County,No,Data not provided by CMS,1192,Point,40.86867951,-73.90499823
33012F,VA HOSP,NY,All Others,Data not provided by CMS,Buffalo,Erie County,No,Data not provided by CMS,899,Point,42.95122341,-78.81359848
33013F,VA HOSP,NY,All Others,Data not provided by CMS,Canandaigua,Ontario County,No,Data not provided by CMS,1513,Point,42.897849,-77.27834209
33024F,VA HOSP,NY,All Others,Data not provided by CMS,Syracuse,Onondaga County,No,Data not provided by CMS,398,Point,43.03937665,-76.13031998
33019F,VA HOSP,NY,All Others,Data not provided by CMS,Northport,Suffolk County,No,Data not provided by CMS,2272,Point,40.89883621,-73.31390415
33018F,US NAVAL HOSP,NY,All Others,Data not provided by CMS,Jamaica,Queens County,No,Data not provided by CMS,1000,Point,40.68638322,-73.79367856
33017F,VA HOSP,NY,All Others,Data not provided by CMS,New York,New York County,No,Data not provided by CMS,1140,Point,40.73984951,-73.98350886
33015F,VA HOSP,NY,All Others,Data not provided by CMS,Montrose,Westchester County,No,Data not provided by CMS,1773,Point,41.2479195,-73.93646649
33020F,VA HOSP,NY,All Others,Data not provided by CMS,Brooklyn,Kings County,No,Data not provided by CMS,1000,Point,40.60859957,-74.02389812
33021F,US PUBLIC HEALTH SERVICE HOSP,NY,All Others,Data not provided by CMS,Staten Island,Richmond County,No,Data not provided by CMS,708,Point,40.61833733,-74.0803398
33014F,VA HOSP,NY,All Others,Data not provided by CMS,Castle Point,Dutchess County,No,Data not provided by CMS,258,Point,41.54305,-73.96304999
31001F,VA HOSP,NJ,All Others,Data not provided by CMS,Orange,Essex County,No,Data not provided by CMS,950,Point,40.76223126,-74.23428826
31003F,US ARMY HOSP,NJ,All Others,Data not provided by CMS,Fort Monmouth,Monmouth County,No,Data not provided by CMS,80,Point,40.3180446,-74.03749999
31004F,VA HOSP,NJ,All Others,Data not provided by CMS,Lyons,Somerset County,No,Data not provided by CMS,1801,Point,40.664815,-74.55407499
339807,MONTEFIORE MEDICAL CENTER T C,NY,All Others,Data not provided by CMS,Bronx,Bronx County,No,Transplant Hospitals,0,Point,40.8798722,-73.87989652
339813,MOUNT SINAI HOSPITAL T C,NY,All Others,Data not provided by CMS,New York,New York County,No,Transplant Hospitals,0,Point,40.79039019,-73.95339232
339803,NEW YORK-PRESBYTERIAN HOSPITAL AT COLUMBIA T C,NY,All Others,Data not provided by CMS,New York,New York County,No,Transplant Hospitals,0,Point,40.84131934,-73.94066683
339814,ERIE COUNTY MEDICAL CENTER T C,NY,All Others,Data not provided by CMS,Buffalo,Erie County,No,Transplant Hospitals,0,Point,42.92726731,-78.82927821
339812,BUFFALO GENERAL MED CTR T C,NY,All Others,Data not provided by CMS,Buffalo,Erie County,No,Transplant Hospitals,0,Point,42.90090563,-78.86598437
339800,UNIVERSITY HOSPITAL S U N Y HEALTH SCIENCE CTR T C,NY,All Others,Data not provided by CMS,Syracuse,Onondaga County,No,Transplant Hospitals,0,Point,43.04252207,-76.1410579
339801,NORTH SHORE UNIVERSITY HOSPITAL - MANHASSET T C,NY,All Others,Data not provided by CMS,Manhasset,Nassau County,No,Transplant Hospitals,0,Point,40.77781532,-73.70188007
339815,LONG ISLAND JEWISH MEDICAL CENTER T C,NY,All Others,Data not provided by CMS,New Hyde Park,Queens County,No,Transplant Hospitals,0,Point,40.75277086,-73.70750718
339804,NYU  LANGONE HOSPITALS T C,NY,All Others,Data not provided by CMS,New York,New York County,No,Transplant Hospitals,0,Point,40.74231151,-73.97430282
339810,NEW YORK-PRESBYTERIAN HOSPITAL AT CORNELL T C,NY,All Others,Data not provided by CMS,New York,New York County,No,Transplant Hospitals,0,Point,40.76435495,-73.95450929
339808,STRONG MEMORIAL HOSPITAL T C,NY,All Others,Data not provided by CMS,Rochester,Monroe County,No,Transplant Hospitals,0,Point,43.12283219,-77.62358741
339806,WESTCHESTER MEDICAL CENTER T C,NY,All Others,Data not provided by CMS,Valhalla,Westchester County,No,Transplant Hospitals,0,Point,41.08902794,-73.80449496
339809,UNIVERSITY HOSPITAL ( STONY BROOK ) T C,NY,All Others,Data not provided by CMS,Stony Brook,Suffolk County,No,Transplant Hospitals,0,Point,40.92026829,-73.1164952
339811,ALBANY MEDICAL CENTER T C,NY,All Others,Data not provided by CMS,Albany,Albany County,No,Transplant Hospitals,0,Point,42.65313234,-73.77529892
339802,UNIVERSITY HOSPITAL OF BROOKLYN ( DOWNSTATE) T C,NY,All Others,Data not provided by CMS,Brooklyn,Kings County,No,Transplant Hospitals,0,Point,40.65473516,-73.9442822
319803,NEWARK BETH ISRAEL MEDICAL CENTER,NJ,All Others,Data not provided by CMS,Newark,Essex County,No,Transplant Hospitals,0,Point,40.70932,-74.2125
319805,"UNIVERSITY HOSPITAL, UNIVERSITY OF MEDICINE AND DE",NJ,All Others,Data not provided by CMS,Newark,Essex County,No,Transplant Hospitals,0,Point,40.74019855,-74.19243384
319800,OUR LADY OF LOURDES MEDICAL CENTER,NJ,All Others,Data not provided by CMS,Camden,Camden County,No,Transplant Hospitals,0,Point,39.92679647,-75.09529118
319801,ROBERT WOOD JOHNSON UNIVERSITY HOSPITAL,NJ,All Others,Data not provided by CMS,New Brunswick,Middlesex County,No,Transplant Hospitals,0,Point,40.49580606,-74.45050632
319802,HACKENSACK UNIVERSITY MEDICAL CENTER,NJ,All Others,Data not provided by CMS,Hackensack,Bergen County,No,Transplant Hospitals,0,Point,40.88236598,-74.05613803
319804,SAINT BARNABAS MEDICAL CENTER,NJ,All Others,Data not provided by CMS,Livingston,Essex County,No,Transplant Hospitals,0,Point,40.76345669,-74.30264751
21014E,PINE BLUFF STATE HOSP,MD,All Others,Data not provided by CMS,Salisbury,Wicomico County,No,Data not provided by CMS,65,Point,38.34904875,-75.61891371
21009F,FORT HOWARD VA OUTPATIENT CLINIC,MD,All Others,Data not provided by CMS,Fort Howard,Baltimore County,No,Data not provided by CMS,1,Point,39.22735165,-76.43051083
21001F,US ARMY HOSP,MD,All Others,Data not provided by CMS,Aberdeen,Harford County,No,Data not provided by CMS,75,Point,39.493027,-76.14300899
21006F,CLINICAL CENTER-NATL INST OF HEALTH,MD,All Others,Data not provided by CMS,Bethesda,Montgomery County,No,Data not provided by CMS,516,Point,39.003647,-77.10282899
21007F,WALTER REED NATIONAL MILITARY MEDICAL CENTER,MD,All Others,Data not provided by CMS,Bethesda,Montgomery County,No,Data not provided by CMS,725,Point,39.00360836,-77.0929122
21020F,BALTIMORE VA MEDICAL CENTER,MD,All Others,Data not provided by CMS,Baltimore,Baltimore City,No,Data not provided by CMS,137,Point,39.28977056,-76.62373441
51005F,MARTINSBURG VA MEDICAL CENTER,WV,All Others,Data not provided by CMS,Martinsburg,Berkeley County,No,Data not provided by CMS,559,Point,39.42960326,-77.94700458
51004F,HUNTINGTON VA MEDICAL CENTER,WV,All Others,Data not provided by CMS,Huntington,Wayne County,No,Data not provided by CMS,80,Point,38.37666501,-82.51676596
49027E,SALVATION ARMY HOME & HOSP,VA,All Others,Data not provided by CMS,Richmond,Richmond City,No,Data not provided by CMS,10,Point,37.56507374,-77.41751707
49033E,VIRGINIA TREATMENT CENTER FOR CHILDREN,VA,All Others,Data not provided by CMS,Richmond,Richmond City,No,Data not provided by CMS,40,Point,37.54291601,-77.43043081
49010F,HUNTER HOLMES MCGUIRE VA MEDICAL CENTER (RICHMOND),VA,All Others,Data not provided by CMS,Richmond,Richmond City,No,Data not provided by CMS,427,Point,37.49794698,-77.46743398
49022E,WESTBROOK PSYCHIATRIC HOSP,VA,All Others,Data not provided by CMS,Richmond,Henrico County,No,Data not provided by CMS,125,Point,37.59736213,-77.46038639
49030E,POAGES MILL CLINIC,VA,All Others,Data not provided by CMS,Roanoke,Roanoke City,No,Data not provided by CMS,2,Point,37.27060998,-79.94256003
49038F,FORT BELVOIR COMMUNITY HOSPTIAL,VA,All Others,Data not provided by CMS,Fort Belvoir,Fairfax County,No,Data not provided by CMS,1,Point,38.70605499,-77.14267748
49011F,SALEM VA MEDICAL CENTER,VA,All Others,Data not provided by CMS,Salem,Salem City,No,Data not provided by CMS,282,Point,37.27428398,-80.01875204
49004F,US ARMY HOSP,VA,All Others,Data not provided by CMS,Fort Monroe,Hampton City,No,Data not provided by CMS,30,Point,37.00652552,-76.31250742
49008F,NAVAL MEDICAL CENTER PORTSMOUTH VIRGINIA,VA,All Others,Data not provided by CMS,Portsmouth,Portsmouth City,No,Data not provided by CMS,1200,Point,36.84598298,-76.307753
49007F,US PUBLIC HEALTH SERVICE HOSP,VA,All Others,Data not provided by CMS,Norfolk,Norfolk City,No,Data not provided by CMS,210,Point,36.90195205,-76.30381359
49006F,HAMPTON VA MEDICAL CENTER,VA,All Others,Data not provided by CMS,Hampton,Hampton City,No,Data not provided by CMS,604,Point,37.01530765,-76.33320147
39004F,COATESVILLE VA MEDICAL CENTER,PA,All Others,Data not provided by CMS,Coatesville,Chester County,No,Data not provided by CMS,1010,Point,39.99809427,-75.7963145
39006F,LEBANON VA MEDICAL CENTER,PA,All Others,Data not provided by CMS,Lebanon,Lebanon County,No,Data not provided by CMS,1069,Point,40.31738501,-76.39941003
39009F,PHILADELPHIA VA MEDICAL CENTER,PA,All Others,Data not provided by CMS,Philadelphia,Philadelphia County,No,Data not provided by CMS,390,Point,39.94982004,-75.20089989
39001F,JAMES E VAN ZANDT VA MEDICAL CENTER (ALTOONA),PA,All Others,Data not provided by CMS,Altoona,Blair County,No,Data not provided by CMS,68,Point,40.48860701,-78.395656
39013F,WILKES-BARRE VA MEDICAL CENTER,PA,All Others,Data not provided by CMS,Wilkes Barre,Luzerne County,No,Data not provided by CMS,291,Point,41.24802747,-75.83728729
39011F,"VA PITTSBURGH HEALTHCARE SYS, HIGHLAND DRIVE DIV",PA,All Others,Data not provided by CMS,Pittsburgh,Allegheny County,No,Data not provided by CMS,590,Point,40.48053855,-79.89448227
39012F,"VA PITTSURGH HEALTHCARE SYST, UNIVERSITY DRIVE DIV",PA,All Others,Data not provided by CMS,Pittsburgh,Allegheny County,No,Data not provided by CMS,686,Point,40.44524001,-79.96003999
39005F,ERIE VA MEDICAL CENTER,PA,All Others,Data not provided by CMS,Erie,Erie County,No,Data not provided by CMS,87,Point,42.10338577,-80.06366697
08002F,WILMINGTON VA MEDICAL & REGIONAL OFFICE CENTER,DE,All Others,Data not provided by CMS,Wilmington,New Castle County,No,Data not provided by CMS,300,Point,39.73866049,-75.60645467
08001F,US AIR FORCE HOSP,DE,All Others,Data not provided by CMS,Dover,Kent County,No,Data not provided by CMS,70,Point,39.1224961,-75.47485217
49J300,COMMONWEALTH CENTER FOR CHILDREN AND ADOLESCENTS,VA,All Others,Data not provided by CMS,Staunton,Staunton City,No,Medicaid Only Psychiatric Hospitals,24,Point,38.1322084,-79.0352046
219800,"JOHNS HOPKINS HOSPITAL, THE",MD,All Others,Data not provided by CMS,Baltimore,Baltimore City,No,Transplant Hospitals,0,Point,39.29701965,-76.59082596
219801,UNIVERITY OF MARYLAND MEDICAL CENTER,MD,All Others,Data not provided by CMS,Baltimore,Baltimore City,No,Transplant Hospitals,0,Point,39.28815696,-76.62364556
519800,CHARLESTON AREA MEDICAL CENTER - TRANSPLANT,WV,All Others,Data not provided by CMS,Charleston,Kanawha County,No,Transplant Hospitals,0,Point,38.34712668,-81.62620166
519801,WVUH TRANSPLANT,WV,All Others,Data not provided by CMS,Morgantown,Monongalia County,No,Transplant Hospitals,0,Point,39.65334015,-79.95924233
499805,MEDICAL COLLEGE OF VIRGINIA,VA,All Others,Data not provided by CMS,Richmond,Richmond City,No,Transplant Hospitals,0,Point,37.54121998,-77.43054003
499804,HENRICO DOCTORS HOSPITAL - TRANSPLANT,VA,All Others,Data not provided by CMS,Richmond,Henrico County,No,Transplant Hospitals,0,Point,37.60405701,-77.540105
499802,UNIVERSITY OF VIRGINIA HEALTH SYSTEM,VA,All Others,Data not provided by CMS,Charlottesville,Albemarle County,No,Transplant Hospitals,0,Point,38.03283,-78.49986996
499801,INOVA FAIRFAX HOSPITAL,VA,All Others,Data not provided by CMS,Falls Church,Fairfax County,No,Transplant Hospitals,0,Point,38.8581924,-77.2264261
499800,SENTARA NORFOLK GENERAL HOSPITAL,VA,All Others,Data not provided by CMS,Norfolk,Norfolk City,No,Transplant Hospitals,0,Point,36.86320473,-76.30379901
499803,CHILDREN'S HOSP KINGS DAUGHTERS - TRANSPLANT,VA,All Others,Data not provided by CMS,Norfolk,Norfolk City,No,Transplant Hospitals,0,Point,36.86186639,-76.30135861
399813,ALBERT EINSTEIN MEDICAL CENTER TRANSPLANT CENTER,PA,All Others,Data not provided by CMS,Philadelphia,Philadelphia County,No,Transplant Hospitals,0,Point,40.03743033,-75.14459454
399806,TEMPLE UNIVERSITY HOSPITAL - TRANSPLANT CENTER,PA,All Others,Data not provided by CMS,Philadelphia,Philadelphia County,No,Transplant Hospitals,0,Point,40.0056337,-75.15198847
399818,ST CHRISTOPHER'S HOSPITAL FOR CHILDREN- TRANSPLANT,PA,All Others,Data not provided by CMS,Philadelphia,Philadelphia County,No,Transplant Hospitals,0,Point,40.0075672,-75.12623348
399819,READING HOSPITAL - TRANSPLANT CENTER,PA,All Others,Data not provided by CMS,Reading,Berks County,No,Transplant Hospitals,0,Point,40.32999174,-75.94830885
399800,GEISINGER MEDICAL CENTER - TRANSPLANT CENTER,PA,All Others,Data not provided by CMS,Danville,Montour County,No,Transplant Hospitals,0,Point,40.96974917,-76.60342522
399810,THOMAS JEFFERSON UNIVERSITY HOSPITAL TRANSPLANT,PA,All Others,Data not provided by CMS,Philadelphia,Philadelphia County,No,Transplant Hospitals,0,Point,39.94962528,-75.15870589
399812,CHILDREN'S HOSPITAL OF PHILADELPHIA TRANSPLANT,PA,All Others,Data not provided by CMS,Philadelphia,Philadelphia County,No,Transplant Hospitals,0,Point,39.94868999,-75.19290003
399808,HOSPITAL OF THE UNIVERSITY OF PENNSYLVANIA,PA,All Others,Data not provided by CMS,Philadelphia,Philadelphia County,No,Transplant Hospitals,0,Point,39.95053221,-75.19353546
399816,CROZER CHESTER MEDICAL CENTER - TRANSPLANT CENTER,PA,All Others,Data not provided by CMS,Chester,Delaware County,No,Transplant Hospitals,0,Point,39.85603157,-75.36863007
399811,MAIN LINE HOSPITAL LANKENAU TRANSPLANT CENTER,PA,All Others,Data not provided by CMS,Wynnewood,Montgomery County,No,Transplant Hospitals,0,Point,39.98823199,-75.26215802
399801,UPMC PRESBYTERIAN SHADYSIDE,PA,All Others,Data not provided by CMS,Pittsburgh,Allegheny County,No,Transplant Hospitals,0,Point,40.44202056,-79.96106141
399803,UPMC CHILDREN'S HOSPITAL OF PGH - TRANSPLANT CTR,PA,All Others,Data not provided by CMS,Pittsburgh,Allegheny County,No,Transplant Hospitals,0,Point,40.46602814,-79.95322793
399804,ALLEGHENY GENERAL HOSPITAL  TRANSPLANT CARE,PA,All Others,Data not provided by CMS,Pittsburgh,Allegheny County,No,Transplant Hospitals,0,Point,40.45610673,-80.00338641
399817,UPMC HAMOT  (TRANSPLANT CENTER),PA,All Others,Data not provided by CMS,Erie,Erie County,No,Transplant Hospitals,0,Point,42.13352496,-80.08792688
399809,UPMC PINNACLE HOSPITALS TRANSPLANT CENTER,PA,All Others,Data not provided by CMS,Harrisburg,Dauphin County,No,Transplant Hospitals,0,Point,40.25651501,-76.87582693
399807,MILTON S HERSHEY MEDICAL CENTER TRANSPLANT CENTER,PA,All Others,Data not provided by CMS,Hershey,Dauphin County,No,Transplant Hospitals,0,Point,40.26461666,-76.67406145
399815,LEHIGH VALLEY HOSPITAL - TRANSPLANT CENTER,PA,All Others,Data not provided by CMS,Allentown,Lehigh County,No,Transplant Hospitals,0,Point,40.60334999,-75.46736998
089801,"NEMOURS CHILDREN'S HOSPITAL, DELAWARE",DE,All Others,Data not provided by CMS,Wilmington,New Castle County,No,Transplant Hospitals,0,Point,39.77929998,-75.555386
089800,CHRISTIANACARE,DE,All Others,Data not provided by CMS,Newark,New Castle County,No,Transplant Hospitals,0,Point,39.68566599,-75.67287396
36034E,NORTH CANTON COMM HOSP,OH,All Others,Data not provided by CMS,North Canton,Stark County,No,Data not provided by CMS,22,Point,40.88534914,-81.40409363
36004F,VA HOSP,OH,All Others,Data not provided by CMS,Cleveland,Cuyahoga County,No,Data not provided by CMS,795,Point,41.3675827,-81.75980633
36033E,RIDGECLIFF HOSP,OH,All Others,Data not provided by CMS,Wickliffe,Lake County,No,Data not provided by CMS,58,Point,41.59715331,-81.47830229
36026E,GOODYEAR TIRE HOSP,OH,All Others,Data not provided by CMS,Akron,Summit County,No,Data not provided by CMS,0,Point,41.068665,-81.46767999
36003F,VA HOSP,OH,All Others,Data not provided by CMS,Cincinnati,Hamilton County,No,Data not provided by CMS,463,Point,39.13816058,-84.50950033
36037E,LIMA STATE HOSP,OH,All Others,Data not provided by CMS,Lima,Allen County,No,Data not provided by CMS,1501,Point,40.74135,-84.10859999
36023E,NIGHTINGALE COTTAGE HOSP,OH,All Others,Data not provided by CMS,Reynoldsburg,Franklin County,No,Data not provided by CMS,30,Point,39.94082981,-82.83001222
36042F,AIRFORCE MEDICAL CTR WRIGHT-PATTERSON,OH,All Others,Data not provided by CMS,Wright Patterson Afb,Greene County,No,Data not provided by CMS,135,Point,39.80437453,-84.03628984
36020E,DARTMOUTH HOSP,OH,All Others,Data not provided by CMS,Dayton,Montgomery County,No,Data not provided by CMS,28,Point,39.7739641,-84.21592551
36006F,US AIR FORCE HOSP,OH,All Others,Data not provided by CMS,Dayton,Greene County,No,Data not provided by CMS,350,Point,39.80007,-84.04040999
36007F,DAYTON VA MEDICAL CENTER,OH,All Others,Data not provided by CMS,Dayton,Montgomery County,No,Data not provided by CMS,762,Point,39.74937129,-84.25319569
36005F,US AIR FORCE HOSP,OH,All Others,Data not provided by CMS,Lockbourne,Franklin County,No,Data not provided by CMS,70,Point,39.82551997,-82.97320996
36001F,LOUIS STOKES VA MEDICAL CENTER-WADE PARK DIVISION,OH,All Others,Data not provided by CMS,Cleveland,Cuyahoga County,No,Data not provided by CMS,949,Point,41.51252434,-81.61362713
36041E,WOODRUFF HOSP,OH,All Others,Data not provided by CMS,Cleveland,Cuyahoga County,No,Data not provided by CMS,96,Point,41.50348265,-81.62558887
36012E,DENISON UNIVERSITY INFIRMARY,OH,All Others,Data not provided by CMS,Granville,Licking County,No,Data not provided by CMS,27,Point,40.0674,-82.52194499
36030E,MADISON HOSP,OH,All Others,Data not provided by CMS,Mansfield,Richland County,No,Data not provided by CMS,38,Point,40.76031445,-82.49158974
369811,CHRIST HOSPITAL - TRANSPLANT,OH,All Others,Data not provided by CMS,Cincinnati,Hamilton County,No,Transplant Hospitals,0,Point,39.12121728,-84.50854739
369806,CINCINNATI CHILDREN'S HOSPITAL MEDICAL CENTER,OH,All Others,Data not provided by CMS,Cincinnati,Hamilton County,No,Transplant Hospitals,0,Point,39.1410569,-84.5004068
369804,UNIVERSITY OF CINCINNATI MEDICAL CENTER,OH,All Others,Data not provided by CMS,Cincinnati,Hamilton County,No,Transplant Hospitals,0,Point,39.13677346,-84.50236096
369803,OHIO STATE UNIVERSITY HOSPITALS,OH,All Others,Data not provided by CMS,Columbus,Franklin County,No,Transplant Hospitals,0,Point,39.99412917,-83.0184693
369810,NATIONWIDE CHILDREN'S HOSPITAL,OH,All Others,Data not provided by CMS,Columbus,Franklin County,No,Transplant Hospitals,0,Point,39.95245376,-82.981055
369805,UNIVERSITY OF TOLEDO MEDICAL CENTER,OH,All Others,Data not provided by CMS,Toledo,Lucas County,No,Transplant Hospitals,0,Point,41.62119248,-83.61692696
369807,UNIVERSITY HOSPITALS CASE MEDICAL CENTER,OH,All Others,Data not provided by CMS,Cleveland,Cuyahoga County,No,Transplant Hospitals,0,Point,41.50733493,-81.60725395
369801,CLEVELAND CLINIC TRANSPLANT CENTER,OH,All Others,Data not provided by CMS,Cleveland,Cuyahoga County,No,Transplant Hospitals,0,Point,41.50344116,-81.62166462
222000,SPAULDING HOSPITAL FOR CONTINUING MED CARE-CAMB,MA,All Others,Long-Term Hospital,Cambridge,Middlesex County,No,Long Term,180,Point,42.37555028,-71.10721375
222047,WHITTIER REHABILITATION HOSPITAL - BRADFORD,MA,All Others,Long-Term Hospital,Bradford,Essex County,No,Long Term,60,Point,42.76166868,-71.11896794
222023,WESTERN MASSACHUSETTS HOSPITAL,MA,All Others,Long-Term Hospital,Westfield,Hampden County,No,Long Term,102,Point,42.11130613,-72.7009365
222003,TEWKSBURY HOSPITAL,MA,All Others,Long-Term Hospital,Tewksbury,Middlesex County,No,Long Term,760,Point,42.61101005,-71.21921073
222027,NEW ENGLAND SINAI HOSPITAL,MA,All Others,Long-Term Hospital,Stoughton,Norfolk County,No,Long Term,212,Point,42.1446309,-71.09876437
222006,LEMUEL SHATTUCK HOSPITAL,MA,All Others,Long-Term Hospital,Jamaica Plain,Suffolk County,No,Long Term,260,Point,42.29961275,-71.10193986
332008,HENRY J CARTER SPECIALTY HOSPITAL,NY,All Others,Long-Term Hospital,New York,New York County,No,Long Term,411,Point,40.80313223,-73.94077035
312023,ACUITY SPECIALTY HOSPITAL OF NEW JERSEY,NJ,All Others,Long-Term Hospital,Atlantic City,Atlantic County,No,Long Term,30,Point,39.35794012,-74.43368602
312024,SILVER LAKE HOSPITAL LTACH,NJ,All Others,Long-Term Hospital,Newark,Essex County,No,Long Term,63,Point,40.77295713,-74.18700091
312018,CARE ONE AT TRINITAS REGIONAL MEDICAL CENTER,NJ,All Others,Long-Term Hospital,Elizabeth,Union County,No,Long Term,75,Point,40.65902481,-74.21440194
312020,KINDRED HOSPITAL NEW JERSEY - MORRIS COUNTY,NJ,All Others,Long-Term Hospital,Dover,Morris County,No,Long Term,45,Point,40.88605708,-74.57629882
212002,WESTERN MARYLAND CENTER,MD,All Others,Long-Term Hospital,Hagerstown,Washington County,No,Long Term,123,Point,39.66548329,-77.7189127
512002,SELECT SPECIALTY HOSPITAL - CHARLESTON,WV,All Others,Long-Term Hospital,Charleston,Kanawha County,No,Long Term,32,Point,38.35340305,-81.63254508
512004,SELECT SPECIALTY HOSPITAL - MORGANTOWN,WV,All Others,Long-Term Hospital,Morgantown,Monongalia County,No,Long Term,25,Point,39.66353098,-79.94592746
512003,"CORNERSTONE SPECIALTY HOSPITALS HUNTINGTON, LLC",WV,All Others,Long-Term Hospital,Huntington,Cabell County,No,Long Term,28,Point,38.43186475,-82.40129678
492001,LAKE TAYLOR TRANSITIONAL CARE HOSPITAL,VA,All Others,Long-Term Hospital,Norfolk,Norfolk City,No,Long Term,296,Point,36.86748067,-76.20450581
492007,HOSPITAL FOR EXTENDED RECOVERY,VA,All Others,Long-Term Hospital,Norfolk,Norfolk City,No,Long Term,35,Point,36.86320473,-76.30379901
392043,CURAHEALTH HERITAGE VALLEY,PA,All Others,Long-Term Hospital,Beaver,Beaver County,No,Long Term,35,Point,40.712246,-80.32209496
392028,PAM HEALTH SPECIALTY HOSPITAL OF PITTSBURGH,PA,All Others,Long-Term Hospital,Oakdale,Allegheny County,No,Long Term,63,Point,40.4399214,-80.2100797
392047,SELECT SPECIALTY HOSPITAL - DANVILLE,PA,All Others,Long-Term Hospital,Danville,Montour County,No,Long Term,30,Point,40.96974942,-76.60341433
392050,GOOD SHEPHERD PENN PARTNERS,PA,All Others,Long-Term Hospital,Philadelphia,Philadelphia County,No,Long Term,38,Point,39.9455658,-75.1725828
392036,SELECT SPECIALTY HOSPITAL LAUREL HIGHLANDS INC,PA,All Others,Long-Term Hospital,Latrobe,Westmoreland County,No,Long Term,40,Point,40.32065341,-79.394186
392045,"SELECT SPECIALTY HOSPITAL - MCKEESPORT, INC",PA,All Others,Long-Term Hospital,Mckeesport,Allegheny County,No,Long Term,30,Point,40.35219552,-79.84965912
392044,SELECT SPECIALTY HOSPITAL - PITTSBURGH/UPMC,PA,All Others,Long-Term Hospital,Pittsburgh,Allegheny County,No,Long Term,67,Point,40.44202056,-79.96106141
392037,SELECT SPECIALTY HOSPITAL - ERIE,PA,All Others,Long-Term Hospital,Erie,Erie County,No,Long Term,50,Point,42.12250074,-80.08744433
392039,SELECT SPECIALTY HOSPITAL - CENTRAL PA HARRISBURG,PA,All Others,Long-Term Hospital,Harrisburg,Dauphin County,No,Long Term,92,Point,40.25725856,-76.88058425
392033,GOOD SHEPHERD SPECIALTY HOSPITAL,PA,All Others,Long-Term Hospital,Bethlehem,Lehigh County,No,Long Term,32,Point,40.64464901,-75.40811797
082000,SELECT SPECIALTY HOSPITAL WILMINGTON,DE,All Others,Long-Term Hospital,Wilmington,New Castle County,No,Long Term,35,Point,39.75082636,-75.54974774
362019,"SELECT SPECIALTY HOSPITAL-CINCINNATI, INC",OH,All Others,Long-Term Hospital,Cincinnati,Hamilton County,No,Long Term,36,Point,39.12121728,-84.50854739
362020,KINDRED HOSPITAL LIMA,OH,All Others,Long-Term Hospital,Lima,Allen County,No,Long Term,12,Point,40.74005753,-84.11793
362022,"SELECT SPECIALTY HOSPITAL-COLUMBUS, INC",OH,All Others,Long-Term Hospital,Columbus,Franklin County,No,Long Term,186,Point,39.98426911,-83.00845176
362037,SELECT SPECIALTY HOSPITAL COLUMBUS,OH,All Others,Long-Term Hospital,Columbus,Franklin County,No,Long Term,43,Point,39.93290326,-82.9959017
362038,ADVANCED SPECIALTY HOSPITAL OF TOLEDO,OH,All Others,Long-Term Hospital,Toledo,Lucas County,No,Long Term,40,Point,41.62073056,-83.59701332
362032,AULTMAN SPECIALTY HOSPITAL,OH,All Others,Long-Term Hospital,Canton,Stark County,No,Long Term,30,Point,40.79684987,-81.40409162
362016,"SELECT SPECIALTY HOSPITAL-NORTHEAST OHIO, INC",OH,All Others,Long-Term Hospital,Canton,Stark County,No,Long Term,61,Point,40.81239985,-81.39702249
362028,PAM SPECIALTY HOSPITAL OF DAYTON,OH,All Others,Long-Term Hospital,Miamisburg,Montgomery County,No,Long Term,44,Point,39.637612,-84.24923896
362033,KINDRED HOSPITALS-DAYTON,OH,All Others,Long-Term Hospital,Dayton,Montgomery County,No,Long Term,67,Point,39.746989,-84.1971498
362036,REGENCY HOSPITAL OF TOLEDO,OH,All Others,Long-Term Hospital,Sylvania,Lucas County,No,Long Term,45,Point,41.71751786,-83.66861322
362029,REGENCY HOSPITAL OF CLEVELAND EAST,OH,All Others,Long-Term Hospital,Cleveland,Cuyahoga County,No,Long Term,142,Point,41.43229121,-81.50555741
362015,GRACE HOSPITAL,OH,All Others,Long-Term Hospital,Bedford,Cuyahoga County,No,Long Term,104,Point,41.39542542,-81.53431002
362027,SELECT SPECIALTY HOSPITAL-AKRON,OH,All Others,Long-Term Hospital,Akron,Summit County,No,Long Term,34,Point,41.08310318,-81.51151853
362031,SELECT SPECIALTY HOSPITAL SOUTHEAST OHIO,OH,All Others,Long-Term Hospital,Newark,Licking County,No,Long Term,35,Point,40.03844001,-82.4649969
224040,DR SOLOMON CARTER FULLER MENTAL HEALTH CENTER,MA,All Others,Psychiatric Hospital,Boston,Suffolk County,No,Psychiatric,60,Point,42.33640499,-71.07097082
224028,DR JOHN C CORRIGAN MENTAL HEALTH CENTER,MA,All Others,Psychiatric Hospital,Fall River,Bristol County,No,Psychiatric,16,Point,41.70756737,-71.14565726
224001,TAUNTON STATE HOSPITAL,MA,All Others,Psychiatric Hospital,Taunton,Bristol County,No,Psychiatric,45,Point,41.91228781,-71.10225988
224044,WESTBOROUGH BEHAVIORAL HEALTHCARE HOSPITAL LLC,MA,All Others,Psychiatric Hospital,Westborough,Worcester County,No,Psychiatric,152,Point,42.28347951,-71.58100585
224045,HOSPITAL FOR BEHAVIORAL MEDICINE,MA,All Others,Psychiatric Hospital,Worcester,Worcester County,No,Psychiatric,82,Point,42.31374912,-71.77047207
224032,WORCESTER RECOVERY CENTER AND HOSPITAL,MA,All Others,Psychiatric Hospital,Worcester,Worcester County,No,Psychiatric,166,Point,42.27958905,-71.7694872
224007,MCLEAN HOSPITAL CORPORATION,MA,All Others,Psychiatric Hospital,Belmont,Middlesex County,No,Psychiatric,324,Point,42.39074922,-71.19103831
224043,TARAVISTA BEHAVIORAL HEALTH CENTER,MA,All Others,Psychiatric Hospital,Devens,Worcester County,No,Psychiatric,108,Point,42.53063183,-71.61500596
224046,MIRAVISTA BEHAVIORAL HEALTH CENTER,MA,All Others,Psychiatric Hospital,Holyoke,Hampden County,No,Psychiatric,36,Point,42.1667222,-72.63369436
224013,"ARBOUR HOSPITAL, THE",MA,All Others,Psychiatric Hospital,Boston,Suffolk County,No,Psychiatric,118,Point,42.31578731,-71.11225119
224041,SOUTHCOAST BEHAVIORAL HEALTH,MA,All Others,Psychiatric Hospital,Dartmouth,Bristol County,No,Psychiatric,120,Point,41.67357259,-70.9870901
224031,CAPE COD & ISLANDS COMMUNITY MENTAL HEALTH CENTER,MA,All Others,Psychiatric Hospital,Pocasset,Barnstable County,No,Psychiatric,16,Point,41.68837809,-70.60239871
414003,EMMA PENDLETON BRADLEY HOSPITAL,RI,All Others,Psychiatric Hospital,Riverside,Providence County,No,Psychiatric,60,Point,41.7928806,-71.36605362
414000,BUTLER HOSPITAL,RI,All Others,Psychiatric Hospital,Providence,Providence County,No,Psychiatric,143,Point,41.84334301,-71.38145001
304001,HAMPSTEAD HOSPITAL & RESIDENTIAL TREATMENT FACILIT,NH,All Others,Psychiatric Hospital,Hampstead,Rockingham County,No,Psychiatric,111,Point,42.87205101,-71.15066595
074012,SOUTHWEST CONNECTICUT MENTAL HEALTH,CT,All Others,Psychiatric Hospital,Bridgeport,Fairfield County,No,Psychiatric,62,Point,41.18943198,-73.16763751
074003,CONNECTICUT VALLEY HOSP,CT,All Others,Psychiatric Hospital,Middletown,Middlesex County,No,Psychiatric,386,Point,41.55783312,-72.62115294
074011,CONNECTICUT MENTAL HEALTH CENTER,CT,All Others,Psychiatric Hospital,New Haven,New Haven County,No,Psychiatric,70,Point,41.30524867,-72.93623345
204005,SPRING HARBOR HOSPITAL,ME,All Others,Psychiatric Hospital,Westbrook,Cumberland County,No,Psychiatric,100,Point,43.65344413,-70.34371868
204006,NORTHERN LIGHT ACADIA HOSPITAL,ME,All Others,Psychiatric Hospital,Bangor,Penobscot County,No,Psychiatric,100,Point,44.8205065,-68.76325241
334009,NEW YORK STATE PSYCHIATRIC INSTITUTE,NY,All Others,Psychiatric Hospital,New York,New York County,No,Psychiatric,22,Point,40.84245371,-73.94335063
334053,BRONX PSYCHIATRIC CENTER,NY,All Others,Psychiatric Hospital,Bronx,Bronx County,No,Psychiatric,412,Point,40.84879009,-73.83936382
334026,BRUNSWICK PSYCH CENTER,NY,All Others,Psychiatric Hospital,Amityville,Suffolk County,No,Psychiatric,124,Point,40.68471828,-73.42055365
334027,SOUTH OAKS HOSP,NY,All Others,Psychiatric Hospital,Amityville,Suffolk County,No,Psychiatric,245,Point,40.68599274,-73.4228606
334012,GREATER BINGHAMTON HEALTH CENTER,NY,All Others,Psychiatric Hospital,Binghamton,Broome County,No,Psychiatric,154,Point,42.1060821,-75.8683795
334022,BRYLIN HOSP,NY,All Others,Psychiatric Hospital,Buffalo,Erie County,No,Psychiatric,88,Point,42.91837096,-78.86779502
334001,HUTCHINGS PSYCHIATRIC CTR,NY,All Others,Psychiatric Hospital,Syracuse,Onondaga County,No,Psychiatric,128,Point,43.04523978,-76.1405218
334004,CREEDMOOR PSYCHIATRIC CENTER,NY,All Others,Psychiatric Hospital,Queens Village,Queens County,No,Psychiatric,476,Point,40.73730393,-73.73404346
334067,NEW YORK CITY CHILDRENS PSYCH CENTER,NY,All Others,Psychiatric Hospital,Bellerose,Queens County,No,Psychiatric,96,Point,40.74584175,-73.72648498
334064,SAGAMORE CHILDREN'S PSYCHIATRIC CENTER,NY,All Others,Psychiatric Hospital,Dix Hills,Suffolk County,No,Psychiatric,44,Point,40.79364111,-73.38418775
334060,KIRBY FORENSIC PSYCHIATRIC CENTER,NY,All Others,Psychiatric Hospital,New York,New York County,No,Psychiatric,164,Point,40.78655403,-73.92794658
334054,MANHATTAN PSYCHIATRIC CENTER,NY,All Others,Psychiatric Hospital,New York,New York County,No,Psychiatric,509,Point,40.78655403,-73.92794658
334066,ROCKLAND CHILDREN'S PSYCHIATRIC CENTER,NY,All Others,Psychiatric Hospital,Orangeburg,Rockland County,No,Psychiatric,30,Point,41.04651609,-73.9693145
334015,ROCKLAND PSYCH CTR,NY,All Others,Psychiatric Hospital,Orangeburg,Rockland County,No,Psychiatric,503,Point,41.04458779,-73.96974466
334043,SOUTH BEACH PSYCHIATRIC CENTER,NY,All Others,Psychiatric Hospital,Staten Island,Richmond County,No,Psychiatric,260,Point,40.58253579,-74.07855484
334002,FOUR WINDS,NY,All Others,Psychiatric Hospital,Katonah,Westchester County,No,Psychiatric,175,Point,41.26341931,-73.6242634
334046,CAPITAL DISTRICT PSYCH CENTER,NY,All Others,Psychiatric Hospital,Albany,Albany County,No,Psychiatric,134,Point,42.65433782,-73.78027383
314023,ASPEN HILLS HEALTHCARE CENTER,NJ,All Others,Psychiatric Hospital,Pemberton,Burlington County,No,Psychiatric,30,Point,39.96660728,-74.63787479
314022,SAINT BARNABAS BEHAVIORAL HEALTH CENTER,NJ,All Others,Psychiatric Hospital,Toms River,Ocean County,No,Psychiatric,40,Point,40.0115064,-74.21678801
314021,HAMPTON HOSPITAL,NJ,All Others,Psychiatric Hospital,Westampton,Burlington County,No,Psychiatric,125,Point,40.00955941,-74.84672131
314013,TRENTON PSYCHIATRIC HOSP,NJ,All Others,Psychiatric Hospital,Trenton,Mercer County,No,Psychiatric,436,Point,40.21788,-74.75939999
314027,CORNERSTONE BEHAVIORAL HEALTH HOSPITAL OF UNION CO,NJ,All Others,Psychiatric Hospital,Berkeley Heights,Union County,No,Psychiatric,44,Point,40.665047,-74.42175295
214012,THOMAS B FINAN CENTER,MD,All Others,Psychiatric Hospital,Cumberland,Allegany County,No,Psychiatric,119,Point,39.65065998,-78.75719003
214003,BROOK LANE HEALTH SERVICES,MD,All Others,Psychiatric Hospital,Hagerstown,Washington County,No,Psychiatric,46,Point,39.67780022,-77.60920742
214020,LUMINIS HEALTH J KENT MCNEW FAMILY MEDICAL CENTER,MD,All Others,Psychiatric Hospital,Annapolis,Anne Arundel County,No,Psychiatric,16,Point,38.97737652,-76.55786002
214004,SPRINGFIELD HOSPITAL CENTER,MD,All Others,Psychiatric Hospital,Sykesville,Carroll County,No,Psychiatric,522,Point,39.38249599,-76.95516802
214000,"SHEPPARD AND ENOCH PRATT HOSPITAL, THE",MD,All Others,Psychiatric Hospital,Baltimore,Baltimore County,No,Psychiatric,322,Point,39.39109297,-76.619839
214018,SPRING GROVE HOSPITAL CENTER,MD,All Others,Psychiatric Hospital,Catonsville,Baltimore County,No,Psychiatric,440,Point,39.26776676,-76.72415975
514001,HIGHLAND HOSPITAL,WV,All Others,Psychiatric Hospital,Charleston,Kanawha County,No,Psychiatric,80,Point,38.31520022,-81.56914278
514009,MILDRED MITCHELL-BATEMAN HOSPITAL,WV,All Others,Psychiatric Hospital,Huntington,Cabell County,No,Psychiatric,110,Point,38.41134044,-82.41363436
514008,RIVER PARK HOSPITAL,WV,All Others,Psychiatric Hospital,Huntington,Cabell County,No,Psychiatric,165,Point,38.41915204,-82.43675005
494022,POPLAR SPRINGS HOSPITAL,VA,All Others,Psychiatric Hospital,Petersburg,Prince George County,No,Psychiatric,130,Point,37.16551001,-77.38595995
494021,WESTERN STATE HOSPITAL,VA,All Others,Psychiatric Hospital,Staunton,Staunton City,No,Psychiatric,246,Point,38.14217796,-79.02716333
494023,DOMINION HOSPITAL,VA,All Others,Psychiatric Hospital,Falls Church,Fairfax County,No,Psychiatric,116,Point,38.86973562,-77.15796263
494010,NORTHERN VIRGINIA MENTAL HEALTH INSTI,VA,All Others,Psychiatric Hospital,Falls Church,Fairfax County,No,Psychiatric,129,Point,38.857706,-77.2321444
494033,CATAWBA HOSPITAL,VA,All Others,Psychiatric Hospital,Catawba,Roanoke County,No,Psychiatric,132,Point,37.39087089,-80.11041083
494032,THE PAVILION AT WILLIAMSBURG PLACE,VA,All Others,Psychiatric Hospital,Williamsburg,James City County,No,Psychiatric,57,Point,37.31524026,-76.73067576
394038,FOUNDATIONS BEHAVIORAL HEALTH,PA,All Others,Psychiatric Hospital,Doylestown,Bucks County,No,Psychiatric,54,Point,40.3004858,-75.15477855
394052,HAVEN BEHAVIORAL HOSPITAL OF EASTERN PENNSYLVANIA,PA,All Others,Psychiatric Hospital,Reading,Berks County,No,Psychiatric,48,Point,40.33801099,-75.92582639
394004,DANVILLE STATE HOSPITAL,PA,All Others,Psychiatric Hospital,Danville,Montour County,No,Psychiatric,161,Point,40.94848554,-76.59636171
394014,WERNERSVILLE STATE HOSPITAL,PA,All Others,Psychiatric Hospital,Wernersville,Berks County,No,Psychiatric,266,Point,40.32926735,-76.10597239
394056,TOWER BEHAVIORAL HEALTH,PA,All Others,Psychiatric Hospital,Reading,Berks County,No,Psychiatric,144,Point,40.37300498,-75.97308599
394023,BELMONT BEHAVIORAL HOSPITAL,PA,All Others,Psychiatric Hospital,Philadelphia,Philadelphia County,No,Psychiatric,147,Point,40.00014746,-75.21569973
394057,MALVERN BEHAVIORAL HEALTH,PA,All Others,Psychiatric Hospital,Philadelphia,Philadelphia County,No,Psychiatric,22,Point,39.92614045,-75.16932459
394027,FAIRMOUNT BEHAVIORAL HEALTH SYSTEM,PA,All Others,Psychiatric Hospital,Philadelphia,Philadelphia County,No,Psychiatric,239,Point,40.04310848,-75.22255378
394055,LANCASTER BEHAVIORAL HEALTH HOSPITAL,PA,All Others,Psychiatric Hospital,Lancaster,Lancaster County,No,Psychiatric,126,Point,40.04753128,-76.31304785
394033,MONTGOMERY COUNTY EMERGENCY SERVICE,PA,All Others,Psychiatric Hospital,Norristown,Montgomery County,No,Psychiatric,73,Point,40.13690311,-75.3522556
394034,HORSHAM CLINIC,PA,All Others,Psychiatric Hospital,Ambler,Montgomery County,No,Psychiatric,146,Point,40.187542,-75.18929296
394012,CLARKS SUMMIT STATE HOSPITAL,PA,All Others,Psychiatric Hospital,Clarks Summit,Lackawanna County,No,Psychiatric,203,Point,41.48221781,-75.73817016
394039,FIRST HOSPITAL OF WYOMING VALLEY,PA,All Others,Psychiatric Hospital,Kingston,Luzerne County,No,Psychiatric,149,Point,41.26937446,-75.88897451
394051,PENNSYLVANIA PSYCHIATRIC INSTITUTE,PA,All Others,Psychiatric Hospital,Harrisburg,Dauphin County,No,Psychiatric,60,Point,40.28600682,-76.89893919
394047,KIDSPEACE ORCHARD HILLS CAMPUS,PA,All Others,Psychiatric Hospital,Orefield,Lehigh County,No,Psychiatric,120,Point,40.64832137,-75.61217708
084001,DELAWARE PSYCHIATRIC CENTER,DE,All Others,Psychiatric Hospital,New Castle,New Castle County,No,Psychiatric,281,Point,39.70142099,-75.57705196
084002,ROCKFORD CENTER,DE,All Others,Psychiatric Hospital,Newark,New Castle County,No,Psychiatric,92,Point,39.69508235,-75.66048676
084004,DOVER BEHAVIORAL HEALTH SYSTEM,DE,All Others,Psychiatric Hospital,Dover,Kent County,No,Psychiatric,73,Point,39.15363299,-75.48420201
084003,MEADOWWOOD BEHAVIORAL HEALTH SYSTEM,DE,All Others,Psychiatric Hospital,New Castle,New Castle County,No,Psychiatric,120,Point,39.63954398,-75.62829414
364057,BLUERIDGE VISTA HEALTH AND WELLNESS,OH,All Others,Psychiatric Hospital,Cincinnati,Hamilton County,No,Psychiatric,40,Point,39.17338109,-84.430434
364029,WINDSOR LAURELWOOD CENTER FOR BEHAVORIAL MEDICINE,OH,All Others,Psychiatric Hospital,Willoughby,Lake County,No,Psychiatric,160,Point,41.62613454,-81.4340296
364038,BELMONT PINES HOSPITAL,OH,All Others,Psychiatric Hospital,Youngstown,Trumbull County,No,Psychiatric,53,Point,41.16230248,-80.65575203
364044,LINDNER CENTER OF HOPE,OH,All Others,Psychiatric Hospital,Mason,Warren County,No,Psychiatric,32,Point,39.331235,-84.29502796
364058,SUN BEHAVIORAL COLUMBUS,OH,All Others,Psychiatric Hospital,Columbus,Franklin County,No,Psychiatric,54,Point,40.08900808,-82.9930542
364061,RIVER VISTA HEALTH AND WELLNESS LLC,OH,All Others,Psychiatric Hospital,Columbus,Franklin County,No,Psychiatric,80,Point,39.93560098,-82.94228996
364062,MOUNT CARMEL BEHAVIORAL HEALTH,OH,All Others,Psychiatric Hospital,Columbus,Franklin County,No,Psychiatric,80,Point,39.93488457,-82.87100774
364052,CLEAR VISTA HEALTH & WELLNESS,OH,All Others,Psychiatric Hospital,Lorain,Lorain County,No,Psychiatric,30,Point,41.43927665,-82.23535362
364048,HAVEN BEHAVIORAL HOSPITAL OF DAYTON,OH,All Others,Psychiatric Hospital,Dayton,Montgomery County,No,Psychiatric,32,Point,39.74738752,-84.20000886
364050,"ACCESS HOSPITAL DAYTON, LLC",OH,All Others,Psychiatric Hospital,Dayton,Montgomery County,No,Psychiatric,110,Point,39.73599299,-84.15453301
364053,HIGHLAND SPRINGS,OH,All Others,Psychiatric Hospital,Beachwood,Cuyahoga County,No,Psychiatric,72,Point,41.45043501,-81.52229095
364049,DUBLIN SPRINGS,OH,All Others,Psychiatric Hospital,Dublin,Franklin County,No,Psychiatric,48,Point,40.10398193,-83.16923384
364040,MENTAL HEALTH SERVICES FOR CLARK AND MADISON COS,OH,All Others,Psychiatric Hospital,Springfield,Clark County,No,Psychiatric,26,Point,39.93126418,-83.81874232
364051,BECKETT SPRINGS,OH,All Others,Psychiatric Hospital,West Chester,Butler County,No,Psychiatric,60,Point,39.34354654,-84.45683012
223034,SPAULDING REHABILITATION HOSPITAL,MA,All Others,Rehabilitation Hospital,Charlestown,Suffolk County,No,Rehabilitation,132,Point,42.37858117,-71.04922422
223026,ENCOMPASS HEALTH REHABILITATION HOSP OF NEW ENGLAN,MA,All Others,Rehabilitation Hospital,Woburn,Middlesex County,No,Rehabilitation,210,Point,42.46349857,-71.16197239
413025,REHABILITATION HOSPITAL OF RHODE ISLAND,RI,All Others,Rehabilitation Hospital,North Smithfield,Providence County,No,Rehabilitation,40,Point,41.98122976,-71.51412967
303026,NORTHEAST REHABILITATION HOSPITAL,NH,All Others,Rehabilitation Hospital,Salem,Rockingham County,No,Rehabilitation,135,Point,42.76578629,-71.1847601
073025,MOUNT SINAI REHABILITATION HOSPITAL INC,CT,All Others,Rehabilitation Hospital,Hartford,Hartford County,No,Rehabilitation,60,Point,41.8002042,-72.69489566
203025,"HEALTHSOUTH/MAINE MEDICAL CENTER, LLC",ME,All Others,Rehabilitation Hospital,Portland,Cumberland County,No,Rehabilitation,100,Point,43.66622879,-70.29186621
313032,"KESSLER INSTITUTE FOR REHABILITATION,INC",NJ,All Others,Rehabilitation Hospital,Marlton,Burlington County,No,Rehabilitation,61,Point,39.8804986,-74.91860862
313029,ENCOMPASS HEALTH REHAB HOSPITAL OF TOMS RIVER,NJ,All Others,Rehabilitation Hospital,Toms River,Ocean County,No,Rehabilitation,92,Point,39.96220765,-74.21686387
313035,ENCOMPASS HEALTH REHAB HOSPITAL OF TINTON FALLS,NJ,All Others,Rehabilitation Hospital,Tinton Falls,Monmouth County,No,Rehabilitation,60,Point,40.28338047,-74.07966536
313030,BACHARACH INSTITUTE FOR REHABILITATION,NJ,All Others,Rehabilitation Hospital,Pomona,Atlantic County,No,Rehabilitation,80,Point,39.47875901,-74.53976001
313038,ATLANTIC REHABILITATION INSTITUTE,NJ,All Others,Rehabilitation Hospital,Madison,Morris County,No,Rehabilitation,38,Point,40.766277,-74.43442203
313025,KESSLER INSTITUTE FOR REHABILITATION WEST ORANGE,NJ,All Others,Rehabilitation Hospital,West Orange,Essex County,No,Rehabilitation,336,Point,40.785669,-74.27701802
213028,ENCOMPASS HEALTH REHAB HOSPITAL OF SALISBURY,MD,All Others,Rehabilitation Hospital,Salisbury,Wicomico County,No,Rehabilitation,64,Point,38.36929853,-75.54756283
213029,ADVENTIST HEALTHCARE  REHABILITATION AT ROCKVILLE,MD,All Others,Rehabilitation Hospital,Rockville,Montgomery County,No,Rehabilitation,87,Point,39.09811009,-77.20115123
513028,ENCOMPASS HEALTH REHAB HOSPITAL OF HUNTINGTON,WV,All Others,Rehabilitation Hospital,Huntington,Cabell County,No,Rehabilitation,62,Point,38.41871191,-82.33815473
513030,ENCOMPASS HEALTH REHAB HOSPITAL OF MORGANTOWN,WV,All Others,Rehabilitation Hospital,Morgantown,Monongalia County,No,Rehabilitation,96,Point,39.65680391,-79.96335771
513025,PETERSON HEALTHCARE AND REHABILITATION HOSPITAL,WV,All Others,Rehabilitation Hospital,Wheeling,Ohio County,No,Rehabilitation,22,Point,40.08073187,-80.69451559
493036,SHELTERING ARMS INSTITUTE,VA,All Others,Rehabilitation Hospital,Richmond,Goochland County,No,Rehabilitation,114,Point,37.65998505,-77.65049936
493028,ENCOMPASS HEALTH REHAB HOSPITAL OF RICHMOND,VA,All Others,Rehabilitation Hospital,Richmond,Henrico County,No,Rehabilitation,40,Point,37.58637438,-77.50617514
493034,REHABILITATION HOSPITAL OF BRISTOL,VA,All Others,Rehabilitation Hospital,Bristol,Bristol City,No,Rehabilitation,25,Point,36.59749199,-82.216551
493027,RIVERSIDE REHABILITATION INSTITUTE,VA,All Others,Rehabilitation Hospital,Yorktown,York County,No,Rehabilitation,50,Point,37.12141001,-76.45456296
493033,ENCOMPASS HEALTH REHAB HOSPITAL OF NORTHERN VA,VA,All Others,Rehabilitation Hospital,Aldie,Loudoun County,No,Rehabilitation,60,Point,38.93875724,-77.55236001
393038,MAGEE REHABILITATION HOSPITAL,PA,All Others,Rehabilitation Hospital,Philadelphia,Philadelphia County,No,Rehabilitation,96,Point,39.96281534,-75.15044605
393025,BRYN MAWR REHABILITATION HOSPITAL,PA,All Others,Rehabilitation Hospital,Malvern,Chester County,No,Rehabilitation,148,Point,40.01019765,-75.5286354
393026,ENCOMPASS HEALTH REHABILITATION HOSPITAL OF READIN,PA,All Others,Rehabilitation Hospital,Reading,Berks County,No,Rehabilitation,60,Point,40.28818171,-75.92404741
393027,HEALTHSOUTH HARMARVILLE REHABILITATION HOSPITAL,PA,All Others,Rehabilitation Hospital,Pittsburgh,Allegheny County,No,Rehabilitation,162,Point,40.55199315,-79.87741517
393039,ENCOMPASS HEALTH REHABILITATION HOSPITAL OF NITTAN,PA,All Others,Rehabilitation Hospital,Pleasant Gap,Centre County,No,Rehabilitation,73,Point,40.86137091,-77.75656896
393040,ENCOMPASS HEALTH REHABILITATION HOSPITAL OF ALTOON,PA,All Others,Rehabilitation Hospital,Altoona,Blair County,No,Rehabilitation,80,Point,40.49756827,-78.39272334
393054,LANCASTER REHABILITATION HOSPITAL,PA,All Others,Rehabilitation Hospital,Lancaster,Lancaster County,No,Rehabilitation,59,Point,40.06273622,-76.35204147
393036,JOHN HEINZ INSTITUTE OF REHABILITATION MEDICINE,PA,All Others,Rehabilitation Hospital,Wilkes Barre Township,Luzerne County,No,Rehabilitation,47,Point,41.24543512,-75.85621963
393046,HEALTHSOUTH REHABILITATION HOSPITAL OF ERIE,PA,All Others,Rehabilitation Hospital,Erie,Erie County,No,Rehabilitation,60,Point,42.13448854,-80.08463673
393056,HELEN M SIMPSON REHABILITATION HOSPITAL,PA,All Others,Rehabilitation Hospital,Harrisburg,Dauphin County,No,Rehabilitation,55,Point,40.28266214,-76.81608148
393053,PENN STATE HEALTH REHABILITATION HOSPITAL,PA,All Others,Rehabilitation Hospital,Hummelstown,Dauphin County,No,Rehabilitation,76,Point,40.27309801,-76.686626
393035,"GOOD SHEPHERD REHABILITATION HOSPITAL, THE",PA,All Others,Rehabilitation Hospital,Allentown,Lehigh County,No,Rehabilitation,106,Point,40.59344015,-75.46370122
083026,ENCOMPASS HEALTH REHAB HOSPITAL OF MIDDLETOWN,DE,All Others,Rehabilitation Hospital,Middletown,New Castle County,No,Rehabilitation,40,Point,39.45300192,-75.67795255
363034,ENCOMPASS HEALTH REHABILITATION HOSPITAL OF CINCIN,OH,All Others,Rehabilitation Hospital,Cincinnati,Hamilton County,No,Rehabilitation,60,Point,39.21350911,-84.47998731
363041,TRIHEALTH REHABILITATION HOSPITAL LLC,OH,All Others,Rehabilitation Hospital,Cincinnati,Hamilton County,No,Rehabilitation,60,Point,39.14538553,-84.4586526
363026,"HILLSIDE REHABILITATION HOSPITAL, INC",OH,All Others,Rehabilitation Hospital,Warren,Trumbull County,No,Rehabilitation,120,Point,41.2492475,-80.73190196
363035,SUMMA REHAB HOSPITAL,OH,All Others,Rehabilitation Hospital,Akron,Summit County,No,Rehabilitation,60,Point,41.07840001,-81.49855449
363037,OHIOHEALTH REHABILITATION HOSPITAL,OH,All Others,Rehabilitation Hospital,Columbus,Franklin County,No,Rehabilitation,44,Point,39.98426911,-83.00845176
363040,REHABILITATION HOSPITAL OF NORTHWEST OHIO LLC,OH,All Others,Rehabilitation Hospital,Toledo,Lucas County,No,Rehabilitation,41,Point,41.61492538,-83.62071852
363038,CLEVELAND CLINIC REHABILITATION HOSPITALS LLC,OH,All Others,Rehabilitation Hospital,Avon,Lorain County,No,Rehabilitation,60,Point,41.47372937,-81.98605185
363043,ENCOMPASS HEALTH REHAB HOSPITAL OF TOLEDO,OH,All Others,Rehabilitation Hospital,Toledo,Lucas County,No,Rehabilitation,24,Point,41.69056081,-83.62511692
363036,UNIVERSITY HOSPITALS REHABILITATION HOSPITAL,OH,All Others,Rehabilitation Hospital,Beachwood,Cuyahoga County,No,Rehabilitation,50,Point,41.45126604,-81.51022453
363042,"MOUNT CARMEL REHABILITATION HOSPITAL, AN AFFILIATE",OH,All Others,Rehabilitation Hospital,Westerville,Delaware County,No,Rehabilitation,60,Point,40.14383545,-82.94883052
363045,EVEREST REHABILITATION HOSPITAL NORTHERN CINCINNAT,OH,All Others,Rehabilitation Hospital,Liberty Township,Butler County,No,Rehabilitation,36,Point,39.38364496,-84.36142336
221990,CHESTNUT HILL BENEVOLENT ASSOCIATION,MA,All Others,Religious Non-Medical Health Care Institution,Chestnut Hill,Norfolk County,No,Religious Nonmedical Health Care Institutions,28,Point,42.32505811,-71.15304247
331990,HIGH RIDGE HOUSE,NY,All Others,Religious Non-Medical Health Care Institution,Bronx,Bronx County,No,Religious Nonmedical Health Care Institutions,20,Point,40.90954707,-73.90681945
361991,GLENMONT,OH,All Others,Religious Non-Medical Health Care Institution,Hilliard,Franklin County,No,Religious Nonmedical Health Care Institutions,37,Point,40.04644905,-83.15835908
470003,UNIVERSITY OF VERMONT MEDICAL CENTER,VT,All Others,Short-Term Hospital,Burlington,Chittenden County,No,Short Term,615,Point,44.48110619,-73.19512622
220162,DANA-FARBER CANCER INSTITUTE,MA,All Others,Short-Term Hospital,Boston,Suffolk County,No,Short Term,27,Point,42.33808596,-71.10808327
220017,CARNEY HOSPITAL,MA,All Others,Short-Term Hospital,Boston,Suffolk County,No,Short Term,135,Point,42.27804531,-71.0660472
220110,BRIGHAM AND WOMEN'S HOSPITAL,MA,All Others,Short-Term Hospital,Boston,Suffolk County,No,Short Term,663,Point,42.33594415,-71.10674872
220086,BETH ISRAEL DEACONESS MEDICAL CENTER,MA,All Others,Short-Term Hospital,Boston,Suffolk County,No,Short Term,597,Point,42.34093829,-71.10502096
220074,"SOUTHCOAST HOSPITAL GROUP, INC",MA,All Others,Short-Term Hospital,Fall River,Bristol County,No,Short Term,695,Point,41.70887943,-71.14528125
220090,MILFORD REGIONAL MEDICAL CENTER,MA,All Others,Short-Term Hospital,Milford,Worcester County,No,Short Term,121,Point,42.13319576,-71.52869633
220008,STURDY MEMORIAL HOSPITAL,MA,All Others,Short-Term Hospital,Attleboro,Bristol County,No,Short Term,126,Point,41.94208418,-71.27494435
220062,ADCARE HOSPITAL OF WORCESTER INC,MA,All Others,Short-Term Hospital,Worcester,Worcester County,No,Short Term,114,Point,42.2763901,-71.79500791
220001,HEALTH ALLIANCE - CLINTON HOSPITAL,MA,All Others,Short-Term Hospital,Leominster,Worcester County,No,Short Term,150,Point,42.54050366,-71.7625495
220015,"COOLEY DICKINSON HOSPITAL INC,THE",MA,All Others,Short-Term Hospital,Northampton,Hampshire County,No,Short Term,142,Point,42.33043791,-72.6537297
220163,UMASS MEMORIAL MEDICAL CENTER INC,MA,All Others,Short-Term Hospital,Worcester,Worcester County,No,Short Term,325,Point,42.27757354,-71.76167233
220070,MELROSEWAKEFIELD HEALTHCARE,MA,All Others,Short-Term Hospital,Melrose,Middlesex County,No,Short Term,538,Point,42.46023046,-71.06110884
220011,CAMBRIDGE HEALTH ALLIANCE,MA,All Others,Short-Term Hospital,Cambridge,Middlesex County,No,Short Term,159,Point,42.37474507,-71.10432635
220002,MOUNT AUBURN HOSPITAL,MA,All Others,Short-Term Hospital,Cambridge,Middlesex County,No,Short Term,217,Point,42.37390306,-71.13423835
220175,METROWEST MEDICAL CENTER,MA,All Others,Short-Term Hospital,Framingham,Middlesex County,No,Short Term,360,Point,42.28543212,-71.41859919
220095,HEYWOOD HOSPITAL -,MA,All Others,Short-Term Hospital,Gardner,Worcester County,No,Short Term,134,Point,42.58637366,-71.9870866
220084,EMERSON HOSPITAL -,MA,All Others,Short-Term Hospital,Concord,Middlesex County,No,Short Term,149,Point,42.45160758,-71.37598425
220063,LOWELL GENERAL HOSPITAL,MA,All Others,Short-Term Hospital,Lowell,Middlesex County,No,Short Term,158,Point,42.64770493,-71.34026871
220098,NASHOBA VALLEY MEDICAL CENTER,MA,All Others,Short-Term Hospital,Ayer,Middlesex County,No,Short Term,57,Point,42.57749262,-71.57398358
220030,BAYSTATE WING HOSPITAL AND MEDICAL CENTERS,MA,All Others,Short-Term Hospital,Palmer,Hampden County,No,Short Term,41,Point,42.16948538,-72.34152502
220024,HOLYOKE MEDICAL CENTER,MA,All Others,Short-Term Hospital,Holyoke,Hampden County,No,Short Term,164,Point,42.20040039,-72.62762527
220066,MERCY MEDICAL CTR,MA,All Others,Short-Term Hospital,Springfield,Hampden County,No,Short Term,339,Point,42.11554544,-72.59322527
220046,BERKSHIRE MEDICAL CENTER INC - 1,MA,All Others,Short-Term Hospital,Pittsfield,Berkshire County,No,Short Term,319,Point,42.45941876,-73.24943123
220033,BEVERLY HOSPITAL CORPORATION,MA,All Others,Short-Term Hospital,Beverly,Essex County,No,Short Term,283,Point,42.5639175,-70.87546301
220035,NORTH SHORE MEDICAL CENTER -,MA,All Others,Short-Term Hospital,Salem,Essex County,No,Short Term,415,Point,42.51031506,-70.90627053
220111,GOOD SAMARITAN MEDICAL CENTER,MA,All Others,Short-Term Hospital,Brockton,Plymouth County,No,Short Term,231,Point,42.09773587,-71.06172323
220100,SOUTH SHORE HOSPITAL,MA,All Others,Short-Term Hospital,South Weymouth,Norfolk County,No,Short Term,284,Point,42.17573321,-70.95420663
220075,MASSACHUSETTS EYE AND EAR INFIRMARY -,MA,All Others,Short-Term Hospital,Boston,Suffolk County,No,Short Term,42,Point,42.36278309,-71.0703027
220108,BETH ISRAEL DEACONESS HOSPITAL-MILTON INC,MA,All Others,Short-Term Hospital,Milton,Norfolk County,No,Short Term,81,Point,42.25138106,-71.07773971
220052,SIGNATURE HEALTHCARE BROCKTON HOSPITAL,MA,All Others,Short-Term Hospital,Brockton,Plymouth County,No,Short Term,205,Point,42.0879098,-70.99130318
220119,BRIGHAM AND WOMEN'S FAULKNER HOSPITAL,MA,All Others,Short-Term Hospital,Boston,Suffolk County,No,Short Term,153,Point,42.30145262,-71.12817521
220071,MASSACHUSETTS GENERAL HOSPITAL,MA,All Others,Short-Term Hospital,Boston,Suffolk County,No,Short Term,907,Point,42.36321505,-71.06877266
220135,FALMOUTH HOSPITAL,MA,All Others,Short-Term Hospital,Falmouth,Barnstable County,No,Short Term,95,Point,41.56421059,-70.62236407
220020,SAINT ANNE'S HOSPITAL,MA,All Others,Short-Term Hospital,Fall River,Bristol County,No,Short Term,160,Point,41.69252717,-71.1637092
220060,BETH ISRAEL DEACONESS HOSPITAL - PLYMOUTH,MA,All Others,Short-Term Hospital,Plymouth,Plymouth County,No,Short Term,155,Point,41.94300061,-70.64528053
220105,WINCHESTER HOSPITAL,MA,All Others,Short-Term Hospital,Winchester,Middlesex County,No,Short Term,189,Point,42.46598326,-71.12278582
220126,NORWOOD HOSPITAL,MA,All Others,Short-Term Hospital,Norwood,Norfolk County,No,Short Term,263,Point,42.18858824,-71.20206135
220036,ST ELIZABETH'S MEDICAL CENTER,MA,All Others,Short-Term Hospital,Brighton,Suffolk County,No,Short Term,252,Point,42.34959123,-71.14798039
220012,CAPE COD HOSPITAL,MA,All Others,Short-Term Hospital,Hyannis,Barnstable County,No,Short Term,259,Point,41.65283932,-70.27460754
220080,HOLY FAMILY HOSPITAL,MA,All Others,Short-Term Hospital,Methuen,Essex County,No,Short Term,275,Point,42.72778693,-71.16839443
220031,BOSTON MEDICAL CENTER CORPORATION-,MA,All Others,Short-Term Hospital,Boston,Suffolk County,No,Short Term,441,Point,42.33478129,-71.07437748
220176,ST VINCENT HOSPITAL,MA,All Others,Short-Term Hospital,Worcester,Worcester County,No,Short Term,283,Point,42.26465833,-71.79700054
220088,NEW ENGLAND BAPTIST HOSPITAL,MA,All Others,Short-Term Hospital,Boston,Suffolk County,No,Short Term,118,Point,42.32975734,-71.1067312
220101,NEWTON-WELLESLEY HOSPITAL,MA,All Others,Short-Term Hospital,Newton,Middlesex County,No,Short Term,224,Point,42.33147483,-71.24456129
220171,"LAHEY HOSPITAL & MEDICAL CENTER, BURLINGTON",MA,All Others,Short-Term Hospital,Burlington,Middlesex County,No,Short Term,327,Point,42.48627266,-71.2063998
220077,BAYSTATE MEDICAL CENTER,MA,All Others,Short-Term Hospital,Springfield,Hampden County,No,Short Term,716,Point,42.12190236,-72.602987
220049,MARLBOROUGH HOSPITAL,MA,All Others,Short-Term Hospital,Marlborough,Middlesex County,No,Short Term,79,Point,42.35531263,-71.55473387
220065,BAYSTATE NOBLE HOSPITAL,MA,All Others,Short-Term Hospital,Westfield,Hampden County,No,Short Term,97,Point,42.11803361,-72.75976002
220073,MORTON HOSPITAL,MA,All Others,Short-Term Hospital,Taunton,Bristol County,No,Short Term,133,Point,41.90600687,-71.09497424
220029,ANNA JAQUES HOSPITAL,MA,All Others,Short-Term Hospital,Newburyport,Essex County,No,Short Term,123,Point,42.81438603,-70.89107984
220083,BETH ISRAEL DEACONESS HOSPITAL - NEEDHAM,MA,All Others,Short-Term Hospital,Needham,Norfolk County,No,Short Term,58,Point,42.27718399,-71.23665305
220010,LAWRENCE GENERAL HOSPITAL,MA,All Others,Short-Term Hospital,Lawrence,Essex County,No,Short Term,189,Point,42.70964233,-71.14926173
410005,OUR LADY OF FATIMA HOSPITAL,RI,All Others,Short-Term Hospital,North Providence,Providence County,No,Short Term,312,Point,41.85603635,-71.45870383
410004,ROGER WILLIAMS MEDICAL CENTER,RI,All Others,Short-Term Hospital,Providence,Providence County,No,Short Term,220,Point,41.83395017,-71.43497139
410012,THE MIRIAM HOSPITAL,RI,All Others,Short-Term Hospital,Providence,Providence County,No,Short Term,247,Point,41.85176003,-71.39754561
410009,KENT COUNTY MEMORIAL HOSPITAL,RI,All Others,Short-Term Hospital,Warwick,Kent County,No,Short Term,359,Point,41.70483072,-71.478522
410007,RHODE ISLAND HOSPITAL,RI,All Others,Short-Term Hospital,Providence,Providence County,No,Short Term,719,Point,41.8112319,-71.40713828
410013,WESTERLY HOSPITAL,RI,All Others,Short-Term Hospital,Westerly,Washington County,No,Short Term,116,Point,41.36276345,-71.82575726
410006,NEWPORT HOSPITAL,RI,All Others,Short-Term Hospital,Newport,Newport County,No,Short Term,129,Point,41.49774407,-71.30610684
410008,SOUTH COUNTY HOSPITAL INC,RI,All Others,Short-Term Hospital,Wakefield,Washington County,No,Short Term,100,Point,41.4318398,-71.49594865
410011,LANDMARK MEDICAL CENTER,RI,All Others,Short-Term Hospital,Woonsocket,Providence County,No,Short Term,214,Point,42.00534441,-71.49594513
410010,WOMEN & INFANTS HOSPITAL OF RHODE ISLAND,RI,All Others,Short-Term Hospital,Providence,Providence County,No,Short Term,167,Point,41.810157,-71.41215518
300020,SOUTHERN NH MEDICAL CENTER,NH,All Others,Short-Term Hospital,Nashua,Hillsborough County,No,Short Term,188,Point,42.75593592,-71.46192893
300017,PARKLAND MEDICAL CENTER,NH,All Others,Short-Term Hospital,Derry,Rockingham County,No,Short Term,86,Point,42.87620542,-71.31688957
300034,CATHOLIC MEDICAL CENTER,NH,All Others,Short-Term Hospital,Manchester,Hillsborough County,No,Short Term,330,Point,42.99114281,-71.47375647
300012,ELLIOT HOSPITAL,NH,All Others,Short-Term Hospital,Manchester,Hillsborough County,No,Short Term,296,Point,42.9838607,-71.43723526
300029,PORTSMOUTH REGIONAL HOSPITAL,NH,All Others,Short-Term Hospital,Portsmouth,Rockingham County,No,Short Term,209,Point,43.06383968,-70.79006324
300014,FRISBIE MEMORIAL HOSPITAL,NH,All Others,Short-Term Hospital,Rochester,Strafford County,No,Short Term,122,Point,43.2982329,-70.95839515
300023,EXETER HOSPITAL INC,NH,All Others,Short-Term Hospital,Exeter,Rockingham County,No,Short Term,100,Point,42.98189682,-70.93549605
300011,ST JOSEPH HOSPITAL,NH,All Others,Short-Term Hospital,Nashua,Hillsborough County,No,Short Term,208,Point,42.75015899,-71.48060507
070036,JOHN DEMPSEY HOSPITAL,CT,All Others,Short-Term Hospital,Farmington,Hartford County,No,Short Term,204,Point,41.73019,-72.791941
070035,"HOSPITAL OF CENTRAL CONNECTICUT, THE",CT,All Others,Short-Term Hospital,New Britain,Hartford County,No,Short Term,330,Point,41.66204244,-72.7869769
070018,GREENWICH HOSPITAL ASSOCIATION -,CT,All Others,Short-Term Hospital,Greenwich,Fairfield County,No,Short Term,206,Point,41.03454798,-73.62967752
070034,NORWALK HOSPITAL,CT,All Others,Short-Term Hospital,Norwalk,Fairfield County,No,Short Term,328,Point,41.11045836,-73.42138421
070003,DAY KIMBALL HOSPITAL,CT,All Others,Short-Term Hospital,Putnam,Windham County,No,Short Term,104,Point,41.90759101,-71.91476008
070024,WILLIAM W BACKUS HOSPITAL,CT,All Others,Short-Term Hospital,Norwich,New London County,No,Short Term,213,Point,41.54242799,-72.08893997
070040,HEBREW HOME AND HOSPITAL INC,CT,All Others,Short-Term Hospital,West Hartford,Hartford County,No,Short Term,45,Point,41.80264648,-72.72854674
070038,"CONNECTICUT HOSPICE INC,THE",CT,All Others,Short-Term Hospital,Branford,New Haven County,No,Short Term,52,Point,41.2561764,-72.83304275
070039,MASONICARE HEALTH CENTER,CT,All Others,Short-Term Hospital,Wallingford,New Haven County,No,Short Term,91,Point,41.463836,-72.83630398
070031,GRIFFIN HOSPITAL,CT,All Others,Short-Term Hospital,Derby,New Haven County,No,Short Term,160,Point,41.33498313,-73.08805964
070020,MIDDLESEX HOSPITAL,CT,All Others,Short-Term Hospital,Middletown,Middlesex County,No,Short Term,275,Point,41.55484461,-72.64757713
070022,YALE-NEW HAVEN HOSPITAL,CT,All Others,Short-Term Hospital,New Haven,New Haven County,No,Short Term,874,Point,41.3036129,-72.93539585
070017,MIDSTATE MEDICAL CENTER,CT,All Others,Short-Term Hospital,Meriden,New Haven County,No,Short Term,144,Point,41.54916298,-72.80085901
070007,LAWRENCE & MEMORIAL HOSPITAL,CT,All Others,Short-Term Hospital,New London,New London County,No,Short Term,280,Point,41.3371134,-72.10363814
070005,WATERBURY HOSPITAL,CT,All Others,Short-Term Hospital,Waterbury,New Haven County,No,Short Term,357,Point,41.55826048,-73.05881946
070016,SAINT MARY'S HOSPITAL,CT,All Others,Short-Term Hospital,Waterbury,New Haven County,No,Short Term,347,Point,41.55263593,-73.03592261
070033,DANBURY HOSPITAL,CT,All Others,Short-Term Hospital,Danbury,Fairfield County,No,Short Term,345,Point,41.40599651,-73.4465678
070010,BRIDGEPORT HOSPITAL,CT,All Others,Short-Term Hospital,Bridgeport,Fairfield County,No,Short Term,497,Point,41.18885446,-73.16645256
070002,SAINT FRANCIS HOSPITAL & MEDICAL CENTER,CT,All Others,Short-Term Hospital,Hartford,Hartford County,No,Short Term,617,Point,41.77528003,-72.69929784
